<?xml version="1.0" encoding="UTF-8"?>
<kml xmlns="http://earth.google.com/kml/2.2">
<Document>
  <Style id="placemark-blue">
    <IconStyle>
      <Icon>
        <href>http://mapswith.me/placemarks/placemark-blue.png</href>
      </Icon>
    </IconStyle>
  </Style>
  <Style id="placemark-brown">
    <IconStyle>
      <Icon>
        <href>http://mapswith.me/placemarks/placemark-brown.png</href>
      </Icon>
    </IconStyle>
  </Style>
  <Style id="placemark-green">
    <IconStyle>
      <Icon>
        <href>http://mapswith.me/placemarks/placemark-green.png</href>
      </Icon>
    </IconStyle>
  </Style>
  <Style id="placemark-orange">
    <IconStyle>
      <Icon>
        <href>http://mapswith.me/placemarks/placemark-orange.png</href>
      </Icon>
    </IconStyle>
  </Style>
  <Style id="placemark-pink">
    <IconStyle>
      <Icon>
        <href>http://mapswith.me/placemarks/placemark-pink.png</href>
      </Icon>
    </IconStyle>
  </Style>
  <Style id="placemark-purple">
    <IconStyle>
      <Icon>
        <href>http://mapswith.me/placemarks/placemark-purple.png</href>
      </Icon>
    </IconStyle>
  </Style>
  <Style id="placemark-red">
    <IconStyle>
      <Icon>
        <href>http://mapswith.me/placemarks/placemark-red.png</href>
      </Icon>
    </IconStyle>
  </Style>
  <Style id="placemark-yellow">
    <IconStyle>
      <Icon>
        <href>http://mapswith.me/placemarks/placemark-yellow.png</href>
      </Icon>
    </IconStyle>
  </Style>
  <name>KML Merge</name>
  <visibility>1</visibility>
  <Placemark>
    <name>Enchanted</name>
    <styleUrl>#placemark-red</styleUrl>
    <Point><coordinates>-120.22141,38.864615</coordinates></Point>
  </Placemark>
  <Placemark>
    <name>Enchanted 2</name>
    <styleUrl>#placemark-red</styleUrl>
    <Point><coordinates>-120.21665,38.866452</coordinates></Point>
  </Placemark>
  <Placemark>
    <name>Enchanted 3</name>
    <styleUrl>#placemark-red</styleUrl>
    <Point><coordinates>-120.21992,38.865158</coordinates></Point>
  </Placemark>
  <Placemark>
    <name>Enchated 4</name>
    <styleUrl>#placemark-red</styleUrl>
    <Point><coordinates>-120.22196,38.864406</coordinates></Point>
  </Placemark>
  <Placemark>
    <name>Enchanted 5</name>
    <styleUrl>#placemark-red</styleUrl>
    <Point><coordinates>-120.21915,38.865392</coordinates></Point>
  </Placemark>
  <Placemark>
    <name>twin lakes</name>
    <styleUrl>#placemark-red</styleUrl>
    <Point><coordinates>-120.19693,38.86897</coordinates></Point>
  </Placemark>
  <Placemark>
    <name>island lake</name>
    <styleUrl>#placemark-red</styleUrl>
    <Point><coordinates>-120.19091,38.874458</coordinates></Point>
  </Placemark>
  <Placemark>
    <name>shimmering waterfall</name>
    <styleUrl>#placemark-red</styleUrl>
    <Point><coordinates>-120.20362,38.866994</coordinates></Point>
  </Placemark>
  <Placemark>
    <name>parking lot</name>
    <styleUrl>#placemark-red</styleUrl>
    <Point><coordinates>-120.22568,38.849646</coordinates></Point>
  </Placemark>
  <Placemark>
    <name>far parking lot</name>
    <styleUrl>#placemark-red</styleUrl>
    <Point><coordinates>-120.23515,38.842471</coordinates></Point>
  </Placemark>
  <Placemark>
    <name>7/5/2014 9:59am (Start)</name>
    <styleUrl>#placemark-red</styleUrl>
    <Point><coordinates>123.95194,10.336409</coordinates></Point>
  </Placemark>
  <Placemark>
    <name>7/5/2014 9:59am (End)</name>
    <description>Created by Google My Tracks on Android

Name: 7/5/2014 9:59am
Activity type: driving
Description: -
Total distance: 5.01 km (3.1 mi)
Total time: 08:04
Moving time: 07:45
Average speed: 37.22 km/h (23.1 mi/h)
Average moving speed: 38.73 km/h (24.1 mi/h)
Max speed: 72.47 km/h (45.0 mi/h)
Average pace: 1:37 min/km (2:36 min/mi)
Average moving pace: 1:33 min/km (2:30 min/mi)
Fastest pace: 0:50 min/km (1:20 min/mi)
Max elevation: 93 m (306 ft)
Min elevation: 56 m (183 ft)
Elevation gain: 187 m (614 ft)
Max grade: 6 %
Min grade: -15 %
Recorded: 7/5/2014 9:59am</description>
    <styleUrl>#placemark-red</styleUrl>
    <Point><coordinates>123.97843,10.316462</coordinates></Point>
  </Placemark>
  <Placemark>
    <name>G Suites Open Street Maps</name>
    <description>No info available</description>
    <styleUrl>#placemark-red</styleUrl>
    <Point><coordinates>121.93031,11.952165</coordinates></Point>
  </Placemark>
  <Placemark>
    <name>Paraiso</name>
    <description>No info available</description>
    <styleUrl>#placemark-red</styleUrl>
    <Point><coordinates>121.92494,11.960907</coordinates></Point>
  </Placemark>
  <Placemark>
    <name>Jammers</name>
    <description>No info available</description>
    <styleUrl>#placemark-red</styleUrl>
    <Point><coordinates>121.92466,11.961554</coordinates></Point>
  </Placemark>
  <Placemark>
    <name>Drop</name>
    <description>No info available</description>
    <styleUrl>#placemark-red</styleUrl>
    <Point><coordinates>122.36654,11.710044</coordinates></Point>
  </Placemark>
  <Placemark>
    <name>Atiatihan Kalibo</name>
    <description>No info available</description>
    <styleUrl>#placemark-red</styleUrl>
    <Point><coordinates>122.36872,11.706338</coordinates></Point>
  </Placemark>
  <Placemark>
    <name>Mang Inasal Kalubo</name>
    <description>No info available</description>
    <styleUrl>#placemark-red</styleUrl>
    <Point><coordinates>122.37113,11.706241</coordinates></Point>
  </Placemark>
  <Placemark>
    <name>Airport Dvo</name>
    <description>No info available</description>
    <styleUrl>#placemark-red</styleUrl>
    <Point><coordinates>125.64457,7.1307477</coordinates></Point>
  </Placemark>
  <Placemark>
    <name>Outback Grill</name>
    <description>No info available</description>
    <styleUrl>#placemark-red</styleUrl>
    <Point><coordinates>125.60475,7.0926057</coordinates></Point>
  </Placemark>
  <Placemark>
    <name>Courtyard Suites</name>
    <description>No info available</description>
    <styleUrl>#placemark-red</styleUrl>
    <Point><coordinates>125.60068,7.0567603</coordinates></Point>
  </Placemark>
  <Placemark>
    <name>Sm Davao</name>
    <description>No info available</description>
    <styleUrl>#placemark-red</styleUrl>
    <Point><coordinates>125.58772,7.0501591</coordinates></Point>
  </Placemark>
  <Placemark>
    <name>World Palace</name>
    <description>No info available</description>
    <styleUrl>#placemark-red</styleUrl>
    <Point><coordinates>125.59855,7.0548032</coordinates></Point>
  </Placemark>
  <Placemark>
    <name>Oro Derm Hotel</name>
    <description>No info available</description>
    <styleUrl>#placemark-red</styleUrl>
    <Point><coordinates>125.6033,7.0676114</coordinates></Point>
  </Placemark>
  <Placemark>
    <name>Nzen</name>
    <description>No info available</description>
    <styleUrl>#placemark-red</styleUrl>
    <Point><coordinates>125.61787,7.0786941</coordinates></Point>
  </Placemark>
  <Placemark>
    <name>Residence Inn</name>
    <description>No info available</description>
    <styleUrl>#placemark-red</styleUrl>
    <Point><coordinates>125.61576,7.0771954</coordinates></Point>
  </Placemark>
  <Placemark>
    <name>Gaisano</name>
    <description>No info available</description>
    <styleUrl>#placemark-red</styleUrl>
    <Point><coordinates>125.61363,7.0785232</coordinates></Point>
  </Placemark>
  <Placemark>
    <name>Peak</name>
    <description>No info available</description>
    <styleUrl>#placemark-red</styleUrl>
    <Point><coordinates>125.61445,7.0771642</coordinates></Point>
  </Placemark>
  <Placemark>
    <name>Manor Hotel</name>
    <description>No info available</description>
    <styleUrl>#placemark-red</styleUrl>
    <Point><coordinates>125.60429,7.0675359</coordinates></Point>
  </Placemark>
  <Placemark>
    <name>First Pacific Inn</name>
    <description>No info available</description>
    <styleUrl>#placemark-red</styleUrl>
    <Point><coordinates>125.60804,7.0725349</coordinates></Point>
  </Placemark>
  <Placemark>
    <name>Sunflower Hotel</name>
    <description>No info available</description>
    <styleUrl>#placemark-red</styleUrl>
    <Point><coordinates>125.60737,7.0777863</coordinates></Point>
  </Placemark>
  <Placemark>
    <name>Blueberry Hotel</name>
    <description>No info available</description>
    <styleUrl>#placemark-red</styleUrl>
    <Point><coordinates>125.60843,7.079482</coordinates></Point>
  </Placemark>
  <Placemark>
    <name>Abreeza Ayala</name>
    <description>No info available</description>
    <styleUrl>#placemark-red</styleUrl>
    <Point><coordinates>125.60998,7.0907168</coordinates></Point>
  </Placemark>
  <Placemark>
    <name>Robinson Cybergate</name>
    <description>No info available</description>
    <styleUrl>#placemark-red</styleUrl>
    <Point><coordinates>125.62429,7.0987109</coordinates></Point>
  </Placemark>
  <Placemark>
    <name>Sm Lanang Premiere</name>
    <description>No info available</description>
    <styleUrl>#placemark-red</styleUrl>
    <Point><coordinates>125.63073,7.1005826</coordinates></Point>
  </Placemark>
  <Placemark>
    <name>Dleonor Hotel</name>
    <description>No info available</description>
    <styleUrl>#placemark-red</styleUrl>
    <Point><coordinates>125.61179,7.0834641</coordinates></Point>
  </Placemark>
  <Placemark>
    <name>Matina Town Square</name>
    <description>No info available</description>
    <styleUrl>#placemark-red</styleUrl>
    <Point><coordinates>125.59681,7.0632182</coordinates></Point>
  </Placemark>
  <Placemark>
    <name>Hotel Esse</name>
    <description>No info available</description>
    <styleUrl>#placemark-red</styleUrl>
    <Point><coordinates>125.60481,7.0767624</coordinates></Point>
  </Placemark>
  <Placemark>
    <name>Croc Park</name>
    <description>No info available</description>
    <styleUrl>#placemark-red</styleUrl>
    <Point><coordinates>125.59772,7.0970241</coordinates></Point>
  </Placemark>
  <Placemark>
    <name>David Statue</name>
    <description>No info available</description>
    <styleUrl>#placemark-red</styleUrl>
    <Point><coordinates>125.58362,7.0419972</coordinates></Point>
  </Placemark>
  <Placemark>
    <name>Nccc Mall</name>
    <description>No info available</description>
    <styleUrl>#placemark-red</styleUrl>
    <Point><coordinates>125.59366,7.0627232</coordinates></Point>
  </Placemark>
  <Placemark>
    <name>El Bajada Hotel</name>
    <description>No info available</description>
    <styleUrl>#placemark-red</styleUrl>
    <Point><coordinates>125.61232,7.0836142</coordinates></Point>
  </Placemark>
  <Placemark>
    <name>Jazzy James Hotel</name>
    <description>No info available</description>
    <styleUrl>#placemark-red</styleUrl>
    <Point><coordinates>125.61304,7.0856572</coordinates></Point>
  </Placemark>
  <Placemark>
    <name>Casa Leticia Hotel</name>
    <description>No info available</description>
    <styleUrl>#placemark-red</styleUrl>
    <Point><coordinates>125.6077,7.0704879</coordinates></Point>
  </Placemark>
  <Placemark>
    <name>Manna Korean</name>
    <description>No info available</description>
    <styleUrl>#placemark-red</styleUrl>
    <Point><coordinates>125.61386,7.0702892</coordinates></Point>
  </Placemark>
  <Placemark>
    <name>Paradise Island Resort</name>
    <description>No info available</description>
    <styleUrl>#placemark-red</styleUrl>
    <Point><coordinates>125.66424,7.1013079</coordinates></Point>
  </Placemark>
  <Placemark>
    <name>Chinatown</name>
    <description>No info available</description>
    <styleUrl>#placemark-red</styleUrl>
    <Point><coordinates>125.62319,7.0741912</coordinates></Point>
  </Placemark>
  <Placemark>
    <name>Luxury Inn</name>
    <description>No info available</description>
    <styleUrl>#placemark-red</styleUrl>
    <Point><coordinates>125.62323,7.0729649</coordinates></Point>
  </Placemark>
  <Placemark>
    <name>Blue Velve Hotel</name>
    <description>No info available</description>
    <styleUrl>#placemark-red</styleUrl>
    <Point><coordinates>125.61031,7.0659523</coordinates></Point>
  </Placemark>
  <Placemark>
    <name>Eden Nature Park</name>
    <description>No info available</description>
    <styleUrl>#placemark-red</styleUrl>
    <Point><coordinates>125.39794,7.030612</coordinates></Point>
  </Placemark>
  <Placemark>
    <name>Japanese Tunnel</name>
    <description>No info available</description>
    <styleUrl>#placemark-red</styleUrl>
    <Point><coordinates>125.56331,7.0656118</coordinates></Point>
  </Placemark>
  <Placemark>
    <name>Sankai Japanese</name>
    <description>No info available</description>
    <styleUrl>#placemark-red</styleUrl>
    <Point><coordinates>125.61013,7.0768599</coordinates></Point>
  </Placemark>
  <Placemark>
    <name>Hari Royal Suites</name>
    <description>No info available</description>
    <styleUrl>#placemark-red</styleUrl>
    <Point><coordinates>125.61692,7.0766286</coordinates></Point>
  </Placemark>
  <Placemark>
    <name>Bbq Boss</name>
    <description>No info available</description>
    <styleUrl>#placemark-red</styleUrl>
    <Point><coordinates>125.60564,7.0706653</coordinates></Point>
  </Placemark>
  <Placemark>
    <name>Marina Tuna</name>
    <description>No info available</description>
    <styleUrl>#placemark-red</styleUrl>
    <Point><coordinates>125.65162,7.1135745</coordinates></Point>
  </Placemark>
  <Placemark>
    <name>Shujin Jap</name>
    <description>No info available</description>
    <styleUrl>#placemark-red</styleUrl>
    <Point><coordinates>125.64012,7.10266</coordinates></Point>
  </Placemark>
  <Placemark>
    <name>Interesting</name>
    <description>No info available</description>
    <styleUrl>#placemark-red</styleUrl>
    <Point><coordinates>125.63244,7.1012259</coordinates></Point>
  </Placemark>
  <Placemark>
    <name>Here Pier</name>
    <description>No info available</description>
    <styleUrl>#placemark-red</styleUrl>
    <Point><coordinates>125.6634,7.1346181</coordinates></Point>
  </Placemark>
  <Placemark>
    <name>Pier</name>
    <description>No info available</description>
    <styleUrl>#placemark-red</styleUrl>
    <Point><coordinates>125.68402,7.1337193</coordinates></Point>
  </Placemark>
  <Placemark>
    <name>Monfort Bat</name>
    <description>No info available</description>
    <styleUrl>#placemark-red</styleUrl>
    <Point><coordinates>125.69151,7.1646786</coordinates></Point>
  </Placemark>
  <Placemark>
    <name>Hagimit Falls</name>
    <description>No info available</description>
    <styleUrl>#placemark-red</styleUrl>
    <Point><coordinates>125.7234,7.0656342</coordinates></Point>
  </Placemark>
  <Placemark>
    <name>Falls</name>
    <description>No info available</description>
    <styleUrl>#placemark-red</styleUrl>
    <Point><coordinates>125.72336,7.0671288</coordinates></Point>
  </Placemark>
  <Placemark>
    <name>Pearl Farm</name>
    <description>No info available</description>
    <styleUrl>#placemark-red</styleUrl>
    <Point><coordinates>125.72598,7.0075278</coordinates></Point>
  </Placemark>
  <Placemark>
    <name>Bulgogi Brothers</name>
    <description>No info available</description>
    <styleUrl>#placemark-red</styleUrl>
    <Point><coordinates>125.63089,7.0975303</coordinates></Point>
  </Placemark>
  <Placemark>
    <name>Aldevinco</name>
    <description>No info available</description>
    <styleUrl>#placemark-red</styleUrl>
    <Point><coordinates>125.61212,7.0713582</coordinates></Point>
  </Placemark>
  <Placemark>
    <name>Cocos Nonki</name>
    <description>No info available</description>
    <styleUrl>#placemark-red</styleUrl>
    <Point><coordinates>125.6099,7.0814576</coordinates></Point>
  </Placemark>
  <Placemark>
    <name>Jollibee Mcdo</name>
    <description>No info available</description>
    <styleUrl>#placemark-red</styleUrl>
    <Point><coordinates>125.61198,7.084466</coordinates></Point>
  </Placemark>
  <Placemark>
    <name>Gaisano Tagum</name>
    <description>No info available</description>
    <styleUrl>#placemark-red</styleUrl>
    <Point><coordinates>125.81142,7.4490077</coordinates></Point>
  </Placemark>
  <Placemark>
    <name>Ecoland Suites Home Crest</name>
    <description>No info available</description>
    <styleUrl>#placemark-red</styleUrl>
    <Point><coordinates>125.59078,7.0493256</coordinates></Point>
  </Placemark>
  <Placemark>
    <name>Thai Boran2</name>
    <description>No info available</description>
    <styleUrl>#placemark-red</styleUrl>
    <Point><coordinates>125.60697,7.0726359</coordinates></Point>
  </Placemark>
  <Placemark>
    <name>Mcd 24hrs</name>
    <description>No info available</description>
    <styleUrl>#placemark-red</styleUrl>
    <Point><coordinates>125.60549,7.069069</coordinates></Point>
  </Placemark>
  <Placemark>
    <name>Calif Diner</name>
    <description>No info available</description>
    <styleUrl>#placemark-red</styleUrl>
    <Point><coordinates>125.60824,7.0791956</coordinates></Point>
  </Placemark>
  <Placemark>
    <name>Food Court</name>
    <description>No info available</description>
    <styleUrl>#placemark-red</styleUrl>
    <Point><coordinates>125.613,7.0882923</coordinates></Point>
  </Placemark>
  <Placemark>
    <name>18</name>
    <description>No info available</description>
    <styleUrl>#placemark-red</styleUrl>
    <Point><coordinates>106.13928,21.155312</coordinates></Point>
  </Placemark>
  <Placemark>
    <name>238</name>
    <description>No info available</description>
    <styleUrl>#placemark-red</styleUrl>
    <Point><coordinates>121.43389,31.191156</coordinates></Point>
  </Placemark>
  <Placemark>
    <name>373 Julu</name>
    <description>No info available</description>
    <styleUrl>#placemark-red</styleUrl>
    <Point><coordinates>121.45468,31.224556</coordinates></Point>
  </Placemark>
  <Placemark>
    <name>5</name>
    <description>No info available</description>
    <styleUrl>#placemark-red</styleUrl>
    <Point><coordinates>121.42473,31.205831</coordinates></Point>
  </Placemark>
  <Placemark>
    <name>5 Seasons</name>
    <description>No info available</description>
    <styleUrl>#placemark-red</styleUrl>
    <Point><coordinates>121.42455,31.206086</coordinates></Point>
  </Placemark>
  <Placemark>
    <name>7-11</name>
    <description>No info available</description>
    <styleUrl>#placemark-red</styleUrl>
    <Point><coordinates>100.06639,9.675575</coordinates></Point>
  </Placemark>
  <Placemark>
    <name>A Massage</name>
    <description>No info available</description>
    <styleUrl>#placemark-red</styleUrl>
    <Point><coordinates>120.58536,15.166796</coordinates></Point>
  </Placemark>
  <Placemark>
    <name>Accumed Diagnostic Center</name>
    <description>No info available</description>
    <styleUrl>#placemark-red</styleUrl>
    <Point><coordinates>120.59542,15.141263</coordinates></Point>
  </Placemark>
  <Placemark>
    <name>Aileen Aunt</name>
    <description>No info available</description>
    <styleUrl>#placemark-red</styleUrl>
    <Point><coordinates>120.60345,15.123279</coordinates></Point>
  </Placemark>
  <Placemark>
    <name>Airlink Ratchaprarop</name>
    <description>No info available</description>
    <styleUrl>#placemark-red</styleUrl>
    <Point><coordinates>100.54217,13.75542</coordinates></Point>
  </Placemark>
  <Placemark>
    <name>Airport</name>
    <description>No info available</description>
    <styleUrl>#placemark-red</styleUrl>
    <Point><coordinates>124.61159,8.407853</coordinates></Point>
  </Placemark>
  <Placemark>
    <name>Airport Rail Link Ramkhamhaeng</name>
    <description>No info available</description>
    <styleUrl>#placemark-red</styleUrl>
    <Point><coordinates>100.60138,13.742738</coordinates></Point>
  </Placemark>
  <Placemark>
    <name>Airport-Departure Rd</name>
    <description>No info available</description>
    <styleUrl>#placemark-red</styleUrl>
    <Point><coordinates>123.9787,10.31672</coordinates></Point>
  </Placemark>
  <Placemark>
    <name>Aiza</name>
    <description>No info available</description>
    <styleUrl>#placemark-red</styleUrl>
    <Point><coordinates>121.04631,14.705501</coordinates></Point>
  </Placemark>
  <Placemark>
    <name>Al Frescos</name>
    <description>No info available</description>
    <styleUrl>#placemark-red</styleUrl>
    <Point><coordinates>106.70321,10.773561</coordinates></Point>
  </Placemark>
  <Placemark>
    <name>Alcoy, Cebu</name>
    <description>No info available</description>
    <styleUrl>#placemark-red</styleUrl>
    <Point><coordinates>123.45942,9.718652</coordinates></Point>
  </Placemark>
  <Placemark>
    <name>Alice</name>
    <description>No info available</description>
    <styleUrl>#placemark-red</styleUrl>
    <Point><coordinates>121.9279,11.955542</coordinates></Point>
  </Placemark>
  <Placemark>
    <name>Alona</name>
    <description>No info available</description>
    <styleUrl>#placemark-red</styleUrl>
    <Point><coordinates>123.77275,9.551475</coordinates></Point>
  </Placemark>
  <Placemark>
    <name>Alyssa</name>
    <description>No info available</description>
    <styleUrl>#placemark-red</styleUrl>
    <Point><coordinates>124.74909,8.541002</coordinates></Point>
  </Placemark>
  <Placemark>
    <name>Amphawa Floating Market</name>
    <description>No info available</description>
    <styleUrl>#placemark-red</styleUrl>
    <Point><coordinates>99.955159,13.425079</coordinates></Point>
  </Placemark>
  <Placemark>
    <name>Amphawa Floating Market Boat P</name>
    <description>No info available</description>
    <styleUrl>#placemark-red</styleUrl>
    <Point><coordinates>99.956061,13.422375</coordinates></Point>
  </Placemark>
  <Placemark>
    <name>An Hong Nice</name>
    <description>No info available</description>
    <styleUrl>#placemark-red</styleUrl>
    <Point><coordinates>105.85096,21.036247</coordinates></Point>
  </Placemark>
  <Placemark>
    <name>Andy Hotel</name>
    <description>No info available</description>
    <styleUrl>#placemark-red</styleUrl>
    <Point><coordinates>123.93664,10.331985</coordinates></Point>
  </Placemark>
  <Placemark>
    <name>Angeles City, Pampanga</name>
    <description>No info available</description>
    <styleUrl>#placemark-red</styleUrl>
    <Point><coordinates>120.58379,15.153279</coordinates></Point>
  </Placemark>
  <Placemark>
    <name>Angeles City, Pampanga 1</name>
    <description>No info available</description>
    <styleUrl>#placemark-red</styleUrl>
    <Point><coordinates>120.58379,15.153279</coordinates></Point>
  </Placemark>
  <Placemark>
    <name>Anilao</name>
    <description>No info available</description>
    <styleUrl>#placemark-red</styleUrl>
    <Point><coordinates>120.89277,13.716221</coordinates></Point>
  </Placemark>
  <Placemark>
    <name>Ao Nang Pier</name>
    <description>No info available</description>
    <styleUrl>#placemark-red</styleUrl>
    <Point><coordinates>98.799635,8.046928</coordinates></Point>
  </Placemark>
  <Placemark>
    <name>Ao Nang Raging</name>
    <description>No info available</description>
    <styleUrl>#placemark-red</styleUrl>
    <Point><coordinates>98.826014,8.032893</coordinates></Point>
  </Placemark>
  <Placemark>
    <name>Apo Dock</name>
    <description>No info available</description>
    <styleUrl>#placemark-red</styleUrl>
    <Point><coordinates>123.21367,9.121949</coordinates></Point>
  </Placemark>
  <Placemark>
    <name>Aptment</name>
    <description>No info available</description>
    <styleUrl>#placemark-red</styleUrl>
    <Point><coordinates>121.01433,14.539528</coordinates></Point>
  </Placemark>
  <Placemark>
    <name>Aree House</name>
    <description>No info available</description>
    <styleUrl>#placemark-red</styleUrl>
    <Point><coordinates>99.957709,12.573783</coordinates></Point>
  </Placemark>
  <Placemark>
    <name>Arizona Hotel</name>
    <description>No info available</description>
    <styleUrl>#placemark-red</styleUrl>
    <Point><coordinates>120.26498,14.849117</coordinates></Point>
  </Placemark>
  <Placemark>
    <name>Asia Diver</name>
    <description>No info available</description>
    <styleUrl>#placemark-red</styleUrl>
    <Point><coordinates>99.831716,10.099365</coordinates></Point>
  </Placemark>
  <Placemark>
    <name>Asok Bts Station</name>
    <description>No info available</description>
    <styleUrl>#placemark-red</styleUrl>
    <Point><coordinates>100.56087,13.736601</coordinates></Point>
  </Placemark>
  <Placemark>
    <name>Asok Bts Station 1</name>
    <description>No info available</description>
    <styleUrl>#placemark-red</styleUrl>
    <Point><coordinates>100.56087,13.736601</coordinates></Point>
  </Placemark>
  <Placemark>
    <name>Astoria Path</name>
    <description>No info available</description>
    <styleUrl>#placemark-red</styleUrl>
    <Point><coordinates>121.92302,11.965495</coordinates></Point>
  </Placemark>
  <Placemark>
    <name>Atiatihan Hotel</name>
    <description>No info available</description>
    <styleUrl>#placemark-red</styleUrl>
    <Point><coordinates>122.36872,11.706392</coordinates></Point>
  </Placemark>
  <Placemark>
    <name>Atm Rcbs</name>
    <description>No info available</description>
    <styleUrl>#placemark-red</styleUrl>
    <Point><coordinates>123.53329,9.760364</coordinates></Point>
  </Placemark>
  <Placemark>
    <name>Atm Rcbs 1</name>
    <description>No info available</description>
    <styleUrl>#placemark-red</styleUrl>
    <Point><coordinates>123.5333,9.760363</coordinates></Point>
  </Placemark>
  <Placemark>
    <name>Aunt Taloc</name>
    <description>No info available</description>
    <styleUrl>#placemark-red</styleUrl>
    <Point><coordinates>122.91287,10.588001</coordinates></Point>
  </Placemark>
  <Placemark>
    <name>Aur2</name>
    <description>No info available</description>
    <styleUrl>#placemark-red</styleUrl>
    <Point><coordinates>120.58423,15.161924</coordinates></Point>
  </Placemark>
  <Placemark>
    <name>Aur2 1</name>
    <description>No info available</description>
    <styleUrl>#placemark-red</styleUrl>
    <Point><coordinates>120.5846,15.161379</coordinates></Point>
  </Placemark>
  <Placemark>
    <name>Aur4</name>
    <description>No info available</description>
    <styleUrl>#placemark-red</styleUrl>
    <Point><coordinates>120.59129,15.165666</coordinates></Point>
  </Placemark>
  <Placemark>
    <name>Aurelia</name>
    <description>No info available</description>
    <styleUrl>#placemark-red</styleUrl>
    <Point><coordinates>121.06307,14.523805</coordinates></Point>
  </Placemark>
  <Placemark>
    <name>Aurelia Home</name>
    <description>No info available</description>
    <styleUrl>#placemark-red</styleUrl>
    <Point><coordinates>121.06218,14.524094</coordinates></Point>
  </Placemark>
  <Placemark>
    <name>Aurelia2</name>
    <description>No info available</description>
    <styleUrl>#placemark-red</styleUrl>
    <Point><coordinates>120.5841,15.162276</coordinates></Point>
  </Placemark>
  <Placemark>
    <name>Aurelia3</name>
    <description>No info available</description>
    <styleUrl>#placemark-red</styleUrl>
    <Point><coordinates>120.59167,15.178925</coordinates></Point>
  </Placemark>
  <Placemark>
    <name>Aurilliamer</name>
    <description>No info available</description>
    <styleUrl>#placemark-red</styleUrl>
    <Point><coordinates>120.59081,15.17654</coordinates></Point>
  </Placemark>
  <Placemark>
    <name>Avenue Suites</name>
    <description>No info available</description>
    <styleUrl>#placemark-red</styleUrl>
    <Point><coordinates>122.95413,10.678629</coordinates></Point>
  </Placemark>
  <Placemark>
    <name>Ayala Center</name>
    <description>No info available</description>
    <styleUrl>#placemark-red</styleUrl>
    <Point><coordinates>123.90506,10.316677</coordinates></Point>
  </Placemark>
  <Placemark>
    <name>Bago Market</name>
    <description>No info available</description>
    <styleUrl>#placemark-red</styleUrl>
    <Point><coordinates>122.83759,10.538336</coordinates></Point>
  </Placemark>
  <Placemark>
    <name>Baiyoke Sky Hotel</name>
    <description>No info available</description>
    <styleUrl>#placemark-red</styleUrl>
    <Point><coordinates>100.54035,13.754153</coordinates></Point>
  </Placemark>
  <Placemark>
    <name>Baiyoke Top</name>
    <description>No info available</description>
    <styleUrl>#placemark-red</styleUrl>
    <Point><coordinates>100.54028,13.754435</coordinates></Point>
  </Placemark>
  <Placemark>
    <name>Ban Thap Chang Airlink</name>
    <description>No info available</description>
    <styleUrl>#placemark-red</styleUrl>
    <Point><coordinates>100.69189,13.733559</coordinates></Point>
  </Placemark>
  <Placemark>
    <name>Bangkok, Bangkok</name>
    <description>No info available</description>
    <styleUrl>#placemark-red</styleUrl>
    <Point><coordinates>100.50181,13.75411</coordinates></Point>
  </Placemark>
  <Placemark>
    <name>Bank</name>
    <description>No info available</description>
    <styleUrl>#placemark-red</styleUrl>
    <Point><coordinates>120.95369,13.501887</coordinates></Point>
  </Placemark>
  <Placemark>
    <name>Banyan Tree Bangkok</name>
    <description>No info available</description>
    <styleUrl>#placemark-red</styleUrl>
    <Point><coordinates>100.53928,13.724327</coordinates></Point>
  </Placemark>
  <Placemark>
    <name>Banyan Tree Bangkok Hotel</name>
    <description>No info available</description>
    <styleUrl>#placemark-red</styleUrl>
    <Point><coordinates>100.53928,13.724327</coordinates></Point>
  </Placemark>
  <Placemark>
    <name>Bar</name>
    <description>No info available</description>
    <styleUrl>#placemark-red</styleUrl>
    <Point><coordinates>124.62446,8.503947</coordinates></Point>
  </Placemark>
  <Placemark>
    <name>Bar 1</name>
    <description>No info available</description>
    <styleUrl>#placemark-red</styleUrl>
    <Point><coordinates>124.64374,8.479318</coordinates></Point>
  </Placemark>
  <Placemark>
    <name>Barangay 698, Ncr</name>
    <description>No info available</description>
    <styleUrl>#placemark-red</styleUrl>
    <Point><coordinates>120.98565,14.572549</coordinates></Point>
  </Placemark>
  <Placemark>
    <name>Bars</name>
    <description>No info available</description>
    <styleUrl>#placemark-red</styleUrl>
    <Point><coordinates>106.69744,10.781295</coordinates></Point>
  </Placemark>
  <Placemark>
    <name>Bars 1</name>
    <description>No info available</description>
    <styleUrl>#placemark-red</styleUrl>
    <Point><coordinates>123.8993,10.311454</coordinates></Point>
  </Placemark>
  <Placemark>
    <name>Bars 2</name>
    <description>No info available</description>
    <styleUrl>#placemark-red</styleUrl>
    <Point><coordinates>120.97584,13.519925</coordinates></Point>
  </Placemark>
  <Placemark>
    <name>Bay Leaf Resort</name>
    <description>No info available</description>
    <styleUrl>#placemark-red</styleUrl>
    <Point><coordinates>120.26246,14.851169</coordinates></Point>
  </Placemark>
  <Placemark>
    <name>Beach</name>
    <description>No info available</description>
    <styleUrl>#placemark-red</styleUrl>
    <Point><coordinates>120.96867,13.524923</coordinates></Point>
  </Placemark>
  <Placemark>
    <name>Beach Ha Ta Wen</name>
    <description>No info available</description>
    <styleUrl>#placemark-red</styleUrl>
    <Point><coordinates>100.77675,12.925223</coordinates></Point>
  </Placemark>
  <Placemark>
    <name>Beach Sai Nuan</name>
    <description>No info available</description>
    <styleUrl>#placemark-red</styleUrl>
    <Point><coordinates>99.816412,10.074053</coordinates></Point>
  </Placemark>
  <Placemark>
    <name>Beachh</name>
    <description>No info available</description>
    <styleUrl>#placemark-red</styleUrl>
    <Point><coordinates>121.92808,11.966948</coordinates></Point>
  </Placemark>
  <Placemark>
    <name>Beem</name>
    <description>No info available</description>
    <styleUrl>#placemark-red</styleUrl>
    <Point><coordinates>100.62179,13.770352</coordinates></Point>
  </Placemark>
  <Placemark>
    <name>Ben Thanh</name>
    <description>No info available</description>
    <styleUrl>#placemark-red</styleUrl>
    <Point><coordinates>106.69842,10.77188</coordinates></Point>
  </Placemark>
  <Placemark>
    <name>Benchasiri Park</name>
    <description>No info available</description>
    <styleUrl>#placemark-red</styleUrl>
    <Point><coordinates>100.56833,13.731194</coordinates></Point>
  </Placemark>
  <Placemark>
    <name>Benoni, Camiguin</name>
    <description>No info available</description>
    <styleUrl>#placemark-red</styleUrl>
    <Point><coordinates>124.79323,9.138908</coordinates></Point>
  </Placemark>
  <Placemark>
    <name>Best Comfort Hotel</name>
    <description>No info available</description>
    <styleUrl>#placemark-red</styleUrl>
    <Point><coordinates>100.55937,13.741057</coordinates></Point>
  </Placemark>
  <Placemark>
    <name>Best View</name>
    <description>No info available</description>
    <styleUrl>#placemark-red</styleUrl>
    <Point><coordinates>110.29365,25.293346</coordinates></Point>
  </Placemark>
  <Placemark>
    <name>Big Budda Pier</name>
    <description>No info available</description>
    <styleUrl>#placemark-red</styleUrl>
    <Point><coordinates>100.05611,9.558258</coordinates></Point>
  </Placemark>
  <Placemark>
    <name>Big Buddah</name>
    <description>No info available</description>
    <styleUrl>#placemark-red</styleUrl>
    <Point><coordinates>100.06069,9.57055</coordinates></Point>
  </Placemark>
  <Placemark>
    <name>Big Intersect</name>
    <description>No info available</description>
    <styleUrl>#placemark-red</styleUrl>
    <Point><coordinates>121.01299,14.566549</coordinates></Point>
  </Placemark>
  <Placemark>
    <name>Big Mall</name>
    <description>No info available</description>
    <styleUrl>#placemark-red</styleUrl>
    <Point><coordinates>123.91119,10.341185</coordinates></Point>
  </Placemark>
  <Placemark>
    <name>Bkk Plastic Surgery</name>
    <description>No info available</description>
    <styleUrl>#placemark-red</styleUrl>
    <Point><coordinates>100.56243,13.78934</coordinates></Point>
  </Placemark>
  <Placemark>
    <name>Blue Butterfly</name>
    <description>No info available</description>
    <styleUrl>#placemark-red</styleUrl>
    <Point><coordinates>105.8513,21.035845</coordinates></Point>
  </Placemark>
  <Placemark>
    <name>Blue Rock Resort</name>
    <description>No info available</description>
    <styleUrl>#placemark-red</styleUrl>
    <Point><coordinates>120.25489,14.847829</coordinates></Point>
  </Placemark>
  <Placemark>
    <name>Boat</name>
    <description>No info available</description>
    <styleUrl>#placemark-red</styleUrl>
    <Point><coordinates>100.06868,9.675877</coordinates></Point>
  </Placemark>
  <Placemark>
    <name>Boat 1</name>
    <description>No info available</description>
    <styleUrl>#placemark-red</styleUrl>
    <Point><coordinates>121.0607,13.708409</coordinates></Point>
  </Placemark>
  <Placemark>
    <name>Boat Boracay</name>
    <description>No info available</description>
    <styleUrl>#placemark-red</styleUrl>
    <Point><coordinates>121.93925,11.939675</coordinates></Point>
  </Placemark>
  <Placemark>
    <name>Boat Central</name>
    <description>No info available</description>
    <styleUrl>#placemark-red</styleUrl>
    <Point><coordinates>100.51292,13.719019</coordinates></Point>
  </Placemark>
  <Placemark>
    <name>Boat Launch 75 Boat 100 Fee</name>
    <description>No info available</description>
    <styleUrl>#placemark-red</styleUrl>
    <Point><coordinates>121.95014,11.92789</coordinates></Point>
  </Placemark>
  <Placemark>
    <name>Boat Saphan Phut</name>
    <description>No info available</description>
    <styleUrl>#placemark-red</styleUrl>
    <Point><coordinates>100.49809,13.740117</coordinates></Point>
  </Placemark>
  <Placemark>
    <name>Boat Wat Arun</name>
    <description>No info available</description>
    <styleUrl>#placemark-red</styleUrl>
    <Point><coordinates>100.49018,13.74622</coordinates></Point>
  </Placemark>
  <Placemark>
    <name>Boats</name>
    <description>No info available</description>
    <styleUrl>#placemark-red</styleUrl>
    <Point><coordinates>122.94112,10.676014</coordinates></Point>
  </Placemark>
  <Placemark>
    <name>Bodos Bamboo Bar</name>
    <description>No info available</description>
    <styleUrl>#placemark-red</styleUrl>
    <Point><coordinates>123.50877,9.715304</coordinates></Point>
  </Placemark>
  <Placemark>
    <name>Bpi</name>
    <description>No info available</description>
    <styleUrl>#placemark-red</styleUrl>
    <Point><coordinates>123.77231,9.550663</coordinates></Point>
  </Placemark>
  <Placemark>
    <name>Bq Mall</name>
    <description>No info available</description>
    <styleUrl>#placemark-red</styleUrl>
    <Point><coordinates>123.85561,9.642193</coordinates></Point>
  </Placemark>
  <Placemark>
    <name>Brasil Steakhouse</name>
    <description>No info available</description>
    <styleUrl>#placemark-red</styleUrl>
    <Point><coordinates>121.44341,31.208879</coordinates></Point>
  </Placemark>
  <Placemark>
    <name>Brazil Omghot</name>
    <description>No info available</description>
    <styleUrl>#placemark-red</styleUrl>
    <Point><coordinates>100.05741,9.520848</coordinates></Point>
  </Placemark>
  <Placemark>
    <name>Bridge</name>
    <description>No info available</description>
    <styleUrl>#placemark-red</styleUrl>
    <Point><coordinates>110.28388,25.279108</coordinates></Point>
  </Placemark>
  <Placemark>
    <name>Bridges Town Square</name>
    <description>No info available</description>
    <styleUrl>#placemark-red</styleUrl>
    <Point><coordinates>123.94995,10.335758</coordinates></Point>
  </Placemark>
  <Placemark>
    <name>Bts Bearing</name>
    <description>No info available</description>
    <styleUrl>#placemark-red</styleUrl>
    <Point><coordinates>100.60148,13.660167</coordinates></Point>
  </Placemark>
  <Placemark>
    <name>Bts Mo Chit</name>
    <description>No info available</description>
    <styleUrl>#placemark-red</styleUrl>
    <Point><coordinates>100.55351,13.802421</coordinates></Point>
  </Placemark>
  <Placemark>
    <name>Bts Siam Paragon</name>
    <description>No info available</description>
    <styleUrl>#placemark-red</styleUrl>
    <Point><coordinates>100.53446,13.745493</coordinates></Point>
  </Placemark>
  <Placemark>
    <name>Budda</name>
    <description>No info available</description>
    <styleUrl>#placemark-red</styleUrl>
    <Point><coordinates>100.06727,9.572289</coordinates></Point>
  </Placemark>
  <Placemark>
    <name>Buds</name>
    <description>No info available</description>
    <styleUrl>#placemark-red</styleUrl>
    <Point><coordinates>106.69588,10.781365</coordinates></Point>
  </Placemark>
  <Placemark>
    <name>Bund</name>
    <description>No info available</description>
    <styleUrl>#placemark-red</styleUrl>
    <Point><coordinates>121.48614,31.240686</coordinates></Point>
  </Placemark>
  <Placemark>
    <name>Bungalow</name>
    <description>No info available</description>
    <styleUrl>#placemark-red</styleUrl>
    <Point><coordinates>100.0535,9.47139</coordinates></Point>
  </Placemark>
  <Placemark>
    <name>Burgos</name>
    <description>No info available</description>
    <styleUrl>#placemark-red</styleUrl>
    <Point><coordinates>121.02856,14.563042</coordinates></Point>
  </Placemark>
  <Placemark>
    <name>Bus</name>
    <description>No info available</description>
    <styleUrl>#placemark-red</styleUrl>
    <Point><coordinates>121.04878,14.623962</coordinates></Point>
  </Placemark>
  <Placemark>
    <name>Bus 1</name>
    <description>No info available</description>
    <styleUrl>#placemark-red</styleUrl>
    <Point><coordinates>121.4509,31.253705</coordinates></Point>
  </Placemark>
  <Placemark>
    <name>Bus 10</name>
    <description>No info available</description>
    <styleUrl>#placemark-red</styleUrl>
    <Point><coordinates>120.99769,14.552449</coordinates></Point>
  </Placemark>
  <Placemark>
    <name>Bus 11 Kalibo</name>
    <description>No info available</description>
    <styleUrl>#placemark-red</styleUrl>
    <Point><coordinates>122.36729,11.700479</coordinates></Point>
  </Placemark>
  <Placemark>
    <name>Bus 2</name>
    <description>No info available</description>
    <styleUrl>#placemark-red</styleUrl>
    <Point><coordinates>122.8633,10.194558</coordinates></Point>
  </Placemark>
  <Placemark>
    <name>Bus 3</name>
    <description>No info available</description>
    <styleUrl>#placemark-red</styleUrl>
    <Point><coordinates>122.81185,9.997615</coordinates></Point>
  </Placemark>
  <Placemark>
    <name>Bus 4</name>
    <description>No info available</description>
    <styleUrl>#placemark-red</styleUrl>
    <Point><coordinates>123.30556,9.299633</coordinates></Point>
  </Placemark>
  <Placemark>
    <name>Bus 5</name>
    <description>No info available</description>
    <styleUrl>#placemark-red</styleUrl>
    <Point><coordinates>123.26403,9.19089</coordinates></Point>
  </Placemark>
  <Placemark>
    <name>Bus 6</name>
    <description>No info available</description>
    <styleUrl>#placemark-red</styleUrl>
    <Point><coordinates>124.62427,8.512068</coordinates></Point>
  </Placemark>
  <Placemark>
    <name>Bus 6 6</name>
    <description>No info available</description>
    <styleUrl>#placemark-red</styleUrl>
    <Point><coordinates>120.97794,14.593763</coordinates></Point>
  </Placemark>
  <Placemark>
    <name>Bus 6 6 1</name>
    <description>No info available</description>
    <styleUrl>#placemark-red</styleUrl>
    <Point><coordinates>120.97795,14.593763</coordinates></Point>
  </Placemark>
  <Placemark>
    <name>Bus 7</name>
    <description>No info available</description>
    <styleUrl>#placemark-red</styleUrl>
    <Point><coordinates>124.26051,8.241618</coordinates></Point>
  </Placemark>
  <Placemark>
    <name>Bus 8</name>
    <description>No info available</description>
    <styleUrl>#placemark-red</styleUrl>
    <Point><coordinates>124.8451,9.003962</coordinates></Point>
  </Placemark>
  <Placemark>
    <name>Bus 9</name>
    <description>No info available</description>
    <styleUrl>#placemark-red</styleUrl>
    <Point><coordinates>121.00579,14.538235</coordinates></Point>
  </Placemark>
  <Placemark>
    <name>Bus Cebu</name>
    <description>No info available</description>
    <styleUrl>#placemark-red</styleUrl>
    <Point><coordinates>123.89353,10.297925</coordinates></Point>
  </Placemark>
  <Placemark>
    <name>Bus North</name>
    <description>No info available</description>
    <styleUrl>#placemark-red</styleUrl>
    <Point><coordinates>123.92508,10.318439</coordinates></Point>
  </Placemark>
  <Placemark>
    <name>Bus South</name>
    <description>No info available</description>
    <styleUrl>#placemark-red</styleUrl>
    <Point><coordinates>122.95587,10.662417</coordinates></Point>
  </Placemark>
  <Placemark>
    <name>Bus Term</name>
    <description>No info available</description>
    <styleUrl>#placemark-red</styleUrl>
    <Point><coordinates>121.45039,31.25439</coordinates></Point>
  </Placemark>
  <Placemark>
    <name>Bus Term Batangas</name>
    <description>No info available</description>
    <styleUrl>#placemark-red</styleUrl>
    <Point><coordinates>121.06174,13.790746</coordinates></Point>
  </Placemark>
  <Placemark>
    <name>Bus Terminal</name>
    <description>No info available</description>
    <styleUrl>#placemark-red</styleUrl>
    <Point><coordinates>121.15332,13.943281</coordinates></Point>
  </Placemark>
  <Placemark>
    <name>Camillian Hospital</name>
    <description>No info available</description>
    <styleUrl>#placemark-red</styleUrl>
    <Point><coordinates>100.58417,13.739133</coordinates></Point>
  </Placemark>
  <Placemark>
    <name>Canon Foxcon</name>
    <description>No info available</description>
    <styleUrl>#placemark-red</styleUrl>
    <Point><coordinates>106.15293,21.145785</coordinates></Point>
  </Placemark>
  <Placemark>
    <name>Casa Bocobo Hotel</name>
    <description>No info available</description>
    <styleUrl>#placemark-red</styleUrl>
    <Point><coordinates>120.98063,14.581218</coordinates></Point>
  </Placemark>
  <Placemark>
    <name>Casaroro Falls</name>
    <description>No info available</description>
    <styleUrl>#placemark-red</styleUrl>
    <Point><coordinates>123.20758,9.28105</coordinates></Point>
  </Placemark>
  <Placemark>
    <name>Cash N Carry</name>
    <description>No info available</description>
    <styleUrl>#placemark-red</styleUrl>
    <Point><coordinates>121.00563,14.558426</coordinates></Point>
  </Placemark>
  <Placemark>
    <name>Caticlan Airport</name>
    <description>No info available</description>
    <styleUrl>#placemark-red</styleUrl>
    <Point><coordinates>121.95296,11.925316</coordinates></Point>
  </Placemark>
  <Placemark>
    <name>Caticlan Pier</name>
    <description>No info available</description>
    <styleUrl>#placemark-red</styleUrl>
    <Point><coordinates>121.95051,11.927884</coordinates></Point>
  </Placemark>
  <Placemark>
    <name>Caticlan, Aklan</name>
    <description>No info available</description>
    <styleUrl>#placemark-red</styleUrl>
    <Point><coordinates>121.95322,11.923599</coordinates></Point>
  </Placemark>
  <Placemark>
    <name>Cave 2</name>
    <description>No info available</description>
    <styleUrl>#placemark-red</styleUrl>
    <Point><coordinates>107.01926,20.910555</coordinates></Point>
  </Placemark>
  <Placemark>
    <name>Cave Dock</name>
    <description>No info available</description>
    <styleUrl>#placemark-red</styleUrl>
    <Point><coordinates>102.21308,20.052981</coordinates></Point>
  </Placemark>
  <Placemark>
    <name>Cave Drop</name>
    <description>No info available</description>
    <styleUrl>#placemark-red</styleUrl>
    <Point><coordinates>110.44411,25.059714</coordinates></Point>
  </Placemark>
  <Placemark>
    <name>Cave Point</name>
    <description>No info available</description>
    <styleUrl>#placemark-red</styleUrl>
    <Point><coordinates>100.00964,12.205887</coordinates></Point>
  </Placemark>
  <Placemark>
    <name>Cave Upper</name>
    <description>No info available</description>
    <styleUrl>#placemark-red</styleUrl>
    <Point><coordinates>102.2107,20.048262</coordinates></Point>
  </Placemark>
  <Placemark>
    <name>Cave1</name>
    <description>No info available</description>
    <styleUrl>#placemark-red</styleUrl>
    <Point><coordinates>102.21435,20.052731</coordinates></Point>
  </Placemark>
  <Placemark>
    <name>Cdo Church</name>
    <description>No info available</description>
    <styleUrl>#placemark-red</styleUrl>
    <Point><coordinates>124.64159,8.475361</coordinates></Point>
  </Placemark>
  <Placemark>
    <name>Cebu City, Cebu</name>
    <description>No info available</description>
    <styleUrl>#placemark-red</styleUrl>
    <Point><coordinates>123.87171,10.413838</coordinates></Point>
  </Placemark>
  <Placemark>
    <name>Cebu Pacific</name>
    <description>No info available</description>
    <styleUrl>#placemark-red</styleUrl>
    <Point><coordinates>124.64294,8.476512</coordinates></Point>
  </Placemark>
  <Placemark>
    <name>Centara Grand</name>
    <description>No info available</description>
    <styleUrl>#placemark-red</styleUrl>
    <Point><coordinates>100.53829,13.74763</coordinates></Point>
  </Placemark>
  <Placemark>
    <name>Center</name>
    <description>No info available</description>
    <styleUrl>#placemark-red</styleUrl>
    <Point><coordinates>110.2908,25.280561</coordinates></Point>
  </Placemark>
  <Placemark>
    <name>Center 1</name>
    <description>No info available</description>
    <styleUrl>#placemark-red</styleUrl>
    <Point><coordinates>108.31696,22.820593</coordinates></Point>
  </Placemark>
  <Placemark>
    <name>Center Nice</name>
    <description>No info available</description>
    <styleUrl>#placemark-red</styleUrl>
    <Point><coordinates>105.85715,21.024528</coordinates></Point>
  </Placemark>
  <Placemark>
    <name>Central Plaza</name>
    <description>No info available</description>
    <styleUrl>#placemark-red</styleUrl>
    <Point><coordinates>100.55923,13.815525</coordinates></Point>
  </Placemark>
  <Placemark>
    <name>Centrio</name>
    <description>No info available</description>
    <styleUrl>#placemark-red</styleUrl>
    <Point><coordinates>124.65175,8.484667</coordinates></Point>
  </Placemark>
  <Placemark>
    <name>Centrio Ayala</name>
    <description>No info available</description>
    <styleUrl>#placemark-red</styleUrl>
    <Point><coordinates>124.65101,8.485255</coordinates></Point>
  </Placemark>
  <Placemark>
    <name>Century Mart</name>
    <description>No info available</description>
    <styleUrl>#placemark-red</styleUrl>
    <Point><coordinates>121.47039,31.204529</coordinates></Point>
  </Placemark>
  <Placemark>
    <name>Ceres Bus 350</name>
    <description>No info available</description>
    <styleUrl>#placemark-red</styleUrl>
    <Point><coordinates>122.57791,10.762374</coordinates></Point>
  </Placemark>
  <Placemark>
    <name>Ch Hotel</name>
    <description>No info available</description>
    <styleUrl>#placemark-red</styleUrl>
    <Point><coordinates>99.001854,18.781818</coordinates></Point>
  </Placemark>
  <Placemark>
    <name>Ch Resort</name>
    <description>No info available</description>
    <styleUrl>#placemark-red</styleUrl>
    <Point><coordinates>102.11029,19.870733</coordinates></Point>
  </Placemark>
  <Placemark>
    <name>Chanthavin Resort</name>
    <description>No info available</description>
    <styleUrl>#placemark-red</styleUrl>
    <Point><coordinates>102.10875,19.87623</coordinates></Point>
  </Placemark>
  <Placemark>
    <name>Chaweng Budget Hotel</name>
    <description>No info available</description>
    <styleUrl>#placemark-red</styleUrl>
    <Point><coordinates>100.05601,9.516907</coordinates></Point>
  </Placemark>
  <Placemark>
    <name>Cheap Tix</name>
    <description>No info available</description>
    <styleUrl>#placemark-red</styleUrl>
    <Point><coordinates>123.89963,10.297235</coordinates></Point>
  </Placemark>
  <Placemark>
    <name>Cheesesteak Shop</name>
    <description>No info available</description>
    <styleUrl>#placemark-red</styleUrl>
    <Point><coordinates>121.04861,14.549866</coordinates></Point>
  </Placemark>
  <Placemark>
    <name>Cheryl Hair Salon</name>
    <description>No info available</description>
    <styleUrl>#placemark-red</styleUrl>
    <Point><coordinates>120.96878,14.463891</coordinates></Point>
  </Placemark>
  <Placemark>
    <name>Chiang Mai Adventure Hq</name>
    <description>No info available</description>
    <styleUrl>#placemark-red</styleUrl>
    <Point><coordinates>98.8475,19.221034</coordinates></Point>
  </Placemark>
  <Placemark>
    <name>Chiang Mai International Arp 1</name>
    <description>No info available</description>
    <styleUrl>#placemark-red</styleUrl>
    <Point><coordinates>98.968407,18.769756</coordinates></Point>
  </Placemark>
  <Placemark>
    <name>Chiang Mai International Arprt</name>
    <description>No info available</description>
    <styleUrl>#placemark-red</styleUrl>
    <Point><coordinates>98.968407,18.769756</coordinates></Point>
  </Placemark>
  <Placemark>
    <name>Chinatown</name>
    <description>No info available</description>
    <styleUrl>#placemark-red</styleUrl>
    <Point><coordinates>100.50719,13.741786</coordinates></Point>
  </Placemark>
  <Placemark>
    <name>Chinatown Soi Texas</name>
    <description>No info available</description>
    <styleUrl>#placemark-red</styleUrl>
    <Point><coordinates>100.51126,13.741042</coordinates></Point>
  </Placemark>
  <Placemark>
    <name>Chinese Mall</name>
    <description>No info available</description>
    <styleUrl>#placemark-red</styleUrl>
    <Point><coordinates>122.94964,10.673249</coordinates></Point>
  </Placemark>
  <Placemark>
    <name>Cho Ben Thanh</name>
    <description>No info available</description>
    <styleUrl>#placemark-red</styleUrl>
    <Point><coordinates>106.69791,10.772696</coordinates></Point>
  </Placemark>
  <Placemark>
    <name>Choco Top</name>
    <description>No info available</description>
    <styleUrl>#placemark-red</styleUrl>
    <Point><coordinates>124.16845,9.798173</coordinates></Point>
  </Placemark>
  <Placemark>
    <name>Chumphon Railway Station</name>
    <description>No info available</description>
    <styleUrl>#placemark-red</styleUrl>
    <Point><coordinates>99.17586,10.503016</coordinates></Point>
  </Placemark>
  <Placemark>
    <name>Chumphon, Chumphon</name>
    <description>No info available</description>
    <styleUrl>#placemark-red</styleUrl>
    <Point><coordinates>99.192554,10.521512</coordinates></Point>
  </Placemark>
  <Placemark>
    <name>Chumpon Pier To Koh Tao</name>
    <description>No info available</description>
    <styleUrl>#placemark-red</styleUrl>
    <Point><coordinates>99.267087,10.358726</coordinates></Point>
  </Placemark>
  <Placemark>
    <name>Church</name>
    <description>No info available</description>
    <styleUrl>#placemark-red</styleUrl>
    <Point><coordinates>106.66656,10.756345</coordinates></Point>
  </Placemark>
  <Placemark>
    <name>Church 1</name>
    <description>No info available</description>
    <styleUrl>#placemark-red</styleUrl>
    <Point><coordinates>106.68888,10.770249</coordinates></Point>
  </Placemark>
  <Placemark>
    <name>Church 2</name>
    <description>No info available</description>
    <styleUrl>#placemark-red</styleUrl>
    <Point><coordinates>122.94748,10.66957</coordinates></Point>
  </Placemark>
  <Placemark>
    <name>Church 3</name>
    <description>No info available</description>
    <styleUrl>#placemark-red</styleUrl>
    <Point><coordinates>123.30768,9.305237</coordinates></Point>
  </Placemark>
  <Placemark>
    <name>Church Nice</name>
    <description>No info available</description>
    <styleUrl>#placemark-red</styleUrl>
    <Point><coordinates>123.94303,10.327121</coordinates></Point>
  </Placemark>
  <Placemark>
    <name>Circle Inn</name>
    <description>No info available</description>
    <styleUrl>#placemark-red</styleUrl>
    <Point><coordinates>122.95938,10.671307</coordinates></Point>
  </Placemark>
  <Placemark>
    <name>Circle Inn Iloilo</name>
    <description>No info available</description>
    <styleUrl>#placemark-red</styleUrl>
    <Point><coordinates>122.56865,10.691599</coordinates></Point>
  </Placemark>
  <Placemark>
    <name>Cityscape Hotel</name>
    <description>No info available</description>
    <styleUrl>#placemark-red</styleUrl>
    <Point><coordinates>123.92075,10.327715</coordinates></Point>
  </Placemark>
  <Placemark>
    <name>Clarkton</name>
    <description>No info available</description>
    <styleUrl>#placemark-red</styleUrl>
    <Point><coordinates>120.56354,15.166396</coordinates></Point>
  </Placemark>
  <Placemark>
    <name>Cliff</name>
    <description>No info available</description>
    <styleUrl>#placemark-red</styleUrl>
    <Point><coordinates>123.48283,9.631911</coordinates></Point>
  </Placemark>
  <Placemark>
    <name>Climb Waterfall</name>
    <description>No info available</description>
    <styleUrl>#placemark-red</styleUrl>
    <Point><coordinates>110.45011,25.111963</coordinates></Point>
  </Placemark>
  <Placemark>
    <name>Clinic</name>
    <description>No info available</description>
    <styleUrl>#placemark-red</styleUrl>
    <Point><coordinates>100.55615,13.741472</coordinates></Point>
  </Placemark>
  <Placemark>
    <name>Clinic 2</name>
    <description>No info available</description>
    <styleUrl>#placemark-red</styleUrl>
    <Point><coordinates>100.55097,13.742817</coordinates></Point>
  </Placemark>
  <Placemark>
    <name>Cm Airport</name>
    <description>No info available</description>
    <styleUrl>#placemark-red</styleUrl>
    <Point><coordinates>98.969129,18.770233</coordinates></Point>
  </Placemark>
  <Placemark>
    <name>Cm Pantip</name>
    <description>No info available</description>
    <styleUrl>#placemark-red</styleUrl>
    <Point><coordinates>98.999912,18.78201</coordinates></Point>
  </Placemark>
  <Placemark>
    <name>Cm People Place</name>
    <description>No info available</description>
    <styleUrl>#placemark-red</styleUrl>
    <Point><coordinates>99.001902,18.781578</coordinates></Point>
  </Placemark>
  <Placemark>
    <name>Cm Temple</name>
    <description>No info available</description>
    <styleUrl>#placemark-red</styleUrl>
    <Point><coordinates>98.933441,18.800889</coordinates></Point>
  </Placemark>
  <Placemark>
    <name>Cm Walking</name>
    <description>No info available</description>
    <styleUrl>#placemark-red</styleUrl>
    <Point><coordinates>99.000056,18.782706</coordinates></Point>
  </Placemark>
  <Placemark>
    <name>Cm Wat</name>
    <description>No info available</description>
    <styleUrl>#placemark-red</styleUrl>
    <Point><coordinates>99.002285,18.792305</coordinates></Point>
  </Placemark>
  <Placemark>
    <name>Cm Wat Nice</name>
    <description>No info available</description>
    <styleUrl>#placemark-red</styleUrl>
    <Point><coordinates>99.005619,18.804177</coordinates></Point>
  </Placemark>
  <Placemark>
    <name>Cm Water</name>
    <description>No info available</description>
    <styleUrl>#placemark-red</styleUrl>
    <Point><coordinates>98.9209,18.801643</coordinates></Point>
  </Placemark>
  <Placemark>
    <name>Cm Zoo</name>
    <description>No info available</description>
    <styleUrl>#placemark-red</styleUrl>
    <Point><coordinates>98.947419,18.810877</coordinates></Point>
  </Placemark>
  <Placemark>
    <name>Cockfight</name>
    <description>No info available</description>
    <styleUrl>#placemark-red</styleUrl>
    <Point><coordinates>123.9443,10.333069</coordinates></Point>
  </Placemark>
  <Placemark>
    <name>Cockfight 1</name>
    <description>No info available</description>
    <styleUrl>#placemark-red</styleUrl>
    <Point><coordinates>123.94445,10.333575</coordinates></Point>
  </Placemark>
  <Placemark>
    <name>Coco</name>
    <description>No info available</description>
    <styleUrl>#placemark-red</styleUrl>
    <Point><coordinates>120.9642,13.524792</coordinates></Point>
  </Placemark>
  <Placemark>
    <name>Coco Beach</name>
    <description>No info available</description>
    <styleUrl>#placemark-red</styleUrl>
    <Point><coordinates>123.5088,9.143816</coordinates></Point>
  </Placemark>
  <Placemark>
    <name>Commuserve Diagnostic Service</name>
    <description>No info available</description>
    <styleUrl>#placemark-red</styleUrl>
    <Point><coordinates>120.55847,15.16491</coordinates></Point>
  </Placemark>
  <Placemark>
    <name>Convent Road</name>
    <description>No info available</description>
    <styleUrl>#placemark-red</styleUrl>
    <Point><coordinates>100.53328,13.727567</coordinates></Point>
  </Placemark>
  <Placemark>
    <name>Cool</name>
    <description>No info available</description>
    <styleUrl>#placemark-red</styleUrl>
    <Point><coordinates>123.85624,9.639587</coordinates></Point>
  </Placemark>
  <Placemark>
    <name>Cool Plaza</name>
    <description>No info available</description>
    <styleUrl>#placemark-red</styleUrl>
    <Point><coordinates>121.45475,31.231566</coordinates></Point>
  </Placemark>
  <Placemark>
    <name>Cool Rest</name>
    <description>No info available</description>
    <styleUrl>#placemark-red</styleUrl>
    <Point><coordinates>100.63,13.821048</coordinates></Point>
  </Placemark>
  <Placemark>
    <name>Cool Restaurant</name>
    <description>No info available</description>
    <styleUrl>#placemark-red</styleUrl>
    <Point><coordinates>123.90419,10.327159</coordinates></Point>
  </Placemark>
  <Placemark>
    <name>Coordinates</name>
    <description>No info available</description>
    <styleUrl>#placemark-red</styleUrl>
    <Point><coordinates>101.99356,19.749598</coordinates></Point>
  </Placemark>
  <Placemark>
    <name>Coordinates 1</name>
    <description>No info available</description>
    <styleUrl>#placemark-red</styleUrl>
    <Point><coordinates>102.13388,19.889321</coordinates></Point>
  </Placemark>
  <Placemark>
    <name>Coordinates 10</name>
    <description>No info available</description>
    <styleUrl>#placemark-red</styleUrl>
    <Point><coordinates>98.886072,19.200222</coordinates></Point>
  </Placemark>
  <Placemark>
    <name>Coordinates 11</name>
    <description>No info available</description>
    <styleUrl>#placemark-red</styleUrl>
    <Point><coordinates>98.847608,19.220741</coordinates></Point>
  </Placemark>
  <Placemark>
    <name>Coordinates 12</name>
    <description>No info available</description>
    <styleUrl>#placemark-red</styleUrl>
    <Point><coordinates>99.439111,11.249051</coordinates></Point>
  </Placemark>
  <Placemark>
    <name>Coordinates 13</name>
    <description>No info available</description>
    <styleUrl>#placemark-red</styleUrl>
    <Point><coordinates>100.49924,13.760586</coordinates></Point>
  </Placemark>
  <Placemark>
    <name>Coordinates 14</name>
    <description>No info available</description>
    <styleUrl>#placemark-red</styleUrl>
    <Point><coordinates>100.49883,13.759825</coordinates></Point>
  </Placemark>
  <Placemark>
    <name>Coordinates 15</name>
    <description>No info available</description>
    <styleUrl>#placemark-red</styleUrl>
    <Point><coordinates>99.142493,14.36537</coordinates></Point>
  </Placemark>
  <Placemark>
    <name>Coordinates 16</name>
    <description>No info available</description>
    <styleUrl>#placemark-red</styleUrl>
    <Point><coordinates>100.5119,13.732497</coordinates></Point>
  </Placemark>
  <Placemark>
    <name>Coordinates 17</name>
    <description>No info available</description>
    <styleUrl>#placemark-red</styleUrl>
    <Point><coordinates>100.50481,13.738356</coordinates></Point>
  </Placemark>
  <Placemark>
    <name>Coordinates 18</name>
    <description>No info available</description>
    <styleUrl>#placemark-red</styleUrl>
    <Point><coordinates>100.48992,13.746315</coordinates></Point>
  </Placemark>
  <Placemark>
    <name>Coordinates 19</name>
    <description>No info available</description>
    <styleUrl>#placemark-red</styleUrl>
    <Point><coordinates>100.53325,13.727344</coordinates></Point>
  </Placemark>
  <Placemark>
    <name>Coordinates 2</name>
    <description>No info available</description>
    <styleUrl>#placemark-red</styleUrl>
    <Point><coordinates>102.14318,19.879584</coordinates></Point>
  </Placemark>
  <Placemark>
    <name>Coordinates 20</name>
    <description>No info available</description>
    <styleUrl>#placemark-red</styleUrl>
    <Point><coordinates>100.51662,13.737595</coordinates></Point>
  </Placemark>
  <Placemark>
    <name>Coordinates 21</name>
    <description>No info available</description>
    <styleUrl>#placemark-red</styleUrl>
    <Point><coordinates>100.5319,13.728623</coordinates></Point>
  </Placemark>
  <Placemark>
    <name>Coordinates 22</name>
    <description>No info available</description>
    <styleUrl>#placemark-red</styleUrl>
    <Point><coordinates>100.532,13.728975</coordinates></Point>
  </Placemark>
  <Placemark>
    <name>Coordinates 23</name>
    <description>No info available</description>
    <styleUrl>#placemark-red</styleUrl>
    <Point><coordinates>100.53249,13.730201</coordinates></Point>
  </Placemark>
  <Placemark>
    <name>Coordinates 24</name>
    <description>No info available</description>
    <styleUrl>#placemark-red</styleUrl>
    <Point><coordinates>98.777757,7.74473</coordinates></Point>
  </Placemark>
  <Placemark>
    <name>Coordinates 25</name>
    <description>No info available</description>
    <styleUrl>#placemark-red</styleUrl>
    <Point><coordinates>100.88389,12.929539</coordinates></Point>
  </Placemark>
  <Placemark>
    <name>Coordinates 26</name>
    <description>No info available</description>
    <styleUrl>#placemark-red</styleUrl>
    <Point><coordinates>120.55808,15.16516</coordinates></Point>
  </Placemark>
  <Placemark>
    <name>Coordinates 3</name>
    <description>No info available</description>
    <styleUrl>#placemark-red</styleUrl>
    <Point><coordinates>102.14858,19.890019</coordinates></Point>
  </Placemark>
  <Placemark>
    <name>Coordinates 4</name>
    <description>No info available</description>
    <styleUrl>#placemark-red</styleUrl>
    <Point><coordinates>102.24747,20.001941</coordinates></Point>
  </Placemark>
  <Placemark>
    <name>Coordinates 5</name>
    <description>No info available</description>
    <styleUrl>#placemark-red</styleUrl>
    <Point><coordinates>102.23071,20.005335</coordinates></Point>
  </Placemark>
  <Placemark>
    <name>Coordinates 6</name>
    <description>No info available</description>
    <styleUrl>#placemark-red</styleUrl>
    <Point><coordinates>102.13443,19.888177</coordinates></Point>
  </Placemark>
  <Placemark>
    <name>Coordinates 7</name>
    <description>No info available</description>
    <styleUrl>#placemark-red</styleUrl>
    <Point><coordinates>99.001069,18.787959</coordinates></Point>
  </Placemark>
  <Placemark>
    <name>Coordinates 8</name>
    <description>No info available</description>
    <styleUrl>#placemark-red</styleUrl>
    <Point><coordinates>98.987998,18.780957</coordinates></Point>
  </Placemark>
  <Placemark>
    <name>Coordinates 9</name>
    <description>No info available</description>
    <styleUrl>#placemark-red</styleUrl>
    <Point><coordinates>98.935859,19.093965</coordinates></Point>
  </Placemark>
  <Placemark>
    <name>Coral</name>
    <description>No info available</description>
    <styleUrl>#placemark-red</styleUrl>
    <Point><coordinates>120.95974,13.514177</coordinates></Point>
  </Placemark>
  <Placemark>
    <name>Courtview Hotel</name>
    <description>No info available</description>
    <styleUrl>#placemark-red</styleUrl>
    <Point><coordinates>125.60062,7.057066</coordinates></Point>
  </Placemark>
  <Placemark>
    <name>Craftys Rooftop Bar</name>
    <description>No info available</description>
    <styleUrl>#placemark-red</styleUrl>
    <Point><coordinates>121.92676,11.9626</coordinates></Point>
  </Placemark>
  <Placemark>
    <name>Crossroads</name>
    <description>No info available</description>
    <styleUrl>#placemark-red</styleUrl>
    <Point><coordinates>123.90901,10.328866</coordinates></Point>
  </Placemark>
  <Placemark>
    <name>Crowded</name>
    <description>No info available</description>
    <styleUrl>#placemark-red</styleUrl>
    <Point><coordinates>123.89936,10.296832</coordinates></Point>
  </Placemark>
  <Placemark>
    <name>Crystal</name>
    <description>No info available</description>
    <styleUrl>#placemark-red</styleUrl>
    <Point><coordinates>121.95769,11.945079</coordinates></Point>
  </Placemark>
  <Placemark>
    <name>Crystal Bay</name>
    <description>No info available</description>
    <styleUrl>#placemark-red</styleUrl>
    <Point><coordinates>100.06733,9.477339</coordinates></Point>
  </Placemark>
  <Placemark>
    <name>Crystal Shopping</name>
    <description>No info available</description>
    <styleUrl>#placemark-red</styleUrl>
    <Point><coordinates>100.62008,13.811176</coordinates></Point>
  </Placemark>
  <Placemark>
    <name>Ctown Shopping</name>
    <description>No info available</description>
    <styleUrl>#placemark-red</styleUrl>
    <Point><coordinates>100.5068,13.741514</coordinates></Point>
  </Placemark>
  <Placemark>
    <name>Cu Chi Tunnels</name>
    <description>No info available</description>
    <styleUrl>#placemark-red</styleUrl>
    <Point><coordinates>106.52936,11.062894</coordinates></Point>
  </Placemark>
  <Placemark>
    <name>Dara Samui</name>
    <description>No info available</description>
    <styleUrl>#placemark-red</styleUrl>
    <Point><coordinates>100.06687,9.533915</coordinates></Point>
  </Placemark>
  <Placemark>
    <name>Dau Bus</name>
    <description>No info available</description>
    <styleUrl>#placemark-red</styleUrl>
    <Point><coordinates>120.58926,15.178674</coordinates></Point>
  </Placemark>
  <Placemark>
    <name>Diamond Apt</name>
    <description>No info available</description>
    <styleUrl>#placemark-red</styleUrl>
    <Point><coordinates>100.57671,13.787767</coordinates></Point>
  </Placemark>
  <Placemark>
    <name>Dive</name>
    <description>No info available</description>
    <styleUrl>#placemark-red</styleUrl>
    <Point><coordinates>120.97252,13.522713</coordinates></Point>
  </Placemark>
  <Placemark>
    <name>Dmall</name>
    <description>No info available</description>
    <styleUrl>#placemark-red</styleUrl>
    <Point><coordinates>121.92432,11.961981</coordinates></Point>
  </Placemark>
  <Placemark>
    <name>Dmall Back</name>
    <description>No info available</description>
    <styleUrl>#placemark-red</styleUrl>
    <Point><coordinates>121.92643,11.963172</coordinates></Point>
  </Placemark>
  <Placemark>
    <name>Dock</name>
    <description>No info available</description>
    <styleUrl>#placemark-red</styleUrl>
    <Point><coordinates>100.06321,9.673769</coordinates></Point>
  </Placemark>
  <Placemark>
    <name>Dock 1</name>
    <description>No info available</description>
    <styleUrl>#placemark-red</styleUrl>
    <Point><coordinates>100.5592,13.748507</coordinates></Point>
  </Placemark>
  <Placemark>
    <name>Dock 2</name>
    <description>No info available</description>
    <styleUrl>#placemark-red</styleUrl>
    <Point><coordinates>123.51243,9.218236</coordinates></Point>
  </Placemark>
  <Placemark>
    <name>Dock 3</name>
    <description>No info available</description>
    <styleUrl>#placemark-red</styleUrl>
    <Point><coordinates>123.84706,9.649171</coordinates></Point>
  </Placemark>
  <Placemark>
    <name>Dock 4</name>
    <description>No info available</description>
    <styleUrl>#placemark-red</styleUrl>
    <Point><coordinates>124.79385,9.139073</coordinates></Point>
  </Placemark>
  <Placemark>
    <name>Dock 5</name>
    <description>No info available</description>
    <styleUrl>#placemark-red</styleUrl>
    <Point><coordinates>120.97623,13.521087</coordinates></Point>
  </Placemark>
  <Placemark>
    <name>Dock Liloan</name>
    <description>No info available</description>
    <styleUrl>#placemark-red</styleUrl>
    <Point><coordinates>123.30286,9.416625</coordinates></Point>
  </Placemark>
  <Placemark>
    <name>Dock Start</name>
    <description>No info available</description>
    <styleUrl>#placemark-red</styleUrl>
    <Point><coordinates>110.4497,24.996104</coordinates></Point>
  </Placemark>
  <Placemark>
    <name>Doi Suthep Viewpoint</name>
    <description>No info available</description>
    <styleUrl>#placemark-red</styleUrl>
    <Point><coordinates>98.921972,18.79838</coordinates></Point>
  </Placemark>
  <Placemark>
    <name>Don Mueang International Arprt</name>
    <description>No info available</description>
    <styleUrl>#placemark-red</styleUrl>
    <Point><coordinates>100.59855,13.912554</coordinates></Point>
  </Placemark>
  <Placemark>
    <name>Downtown</name>
    <description>No info available</description>
    <styleUrl>#placemark-red</styleUrl>
    <Point><coordinates>110.29378,25.280871</coordinates></Point>
  </Placemark>
  <Placemark>
    <name>Downtown 1</name>
    <description>No info available</description>
    <styleUrl>#placemark-red</styleUrl>
    <Point><coordinates>122.9546,10.679794</coordinates></Point>
  </Placemark>
  <Placemark>
    <name>Downtown Central</name>
    <description>No info available</description>
    <styleUrl>#placemark-red</styleUrl>
    <Point><coordinates>123.30751,9.307952</coordinates></Point>
  </Placemark>
  <Placemark>
    <name>Draft</name>
    <description>No info available</description>
    <styleUrl>#placemark-red</styleUrl>
    <Point><coordinates>121.04721,14.549404</coordinates></Point>
  </Placemark>
  <Placemark>
    <name>Dragonfly</name>
    <description>No info available</description>
    <styleUrl>#placemark-red</styleUrl>
    <Point><coordinates>105.85228,21.036027</coordinates></Point>
  </Placemark>
  <Placemark>
    <name>Dream Garden</name>
    <description>No info available</description>
    <styleUrl>#placemark-red</styleUrl>
    <Point><coordinates>98.825645,8.032807</coordinates></Point>
  </Placemark>
  <Placemark>
    <name>Dream World</name>
    <description>No info available</description>
    <styleUrl>#placemark-red</styleUrl>
    <Point><coordinates>100.67536,13.991776</coordinates></Point>
  </Placemark>
  <Placemark>
    <name>Dreamland</name>
    <description>No info available</description>
    <styleUrl>#placemark-red</styleUrl>
    <Point><coordinates>121.92082,11.974844</coordinates></Point>
  </Placemark>
  <Placemark>
    <name>Drop</name>
    <description>No info available</description>
    <styleUrl>#placemark-red</styleUrl>
    <Point><coordinates>110.39487,24.812496</coordinates></Point>
  </Placemark>
  <Placemark>
    <name>Drop 1</name>
    <description>No info available</description>
    <styleUrl>#placemark-red</styleUrl>
    <Point><coordinates>110.44695,25.056059</coordinates></Point>
  </Placemark>
  <Placemark>
    <name>Drop 2</name>
    <description>No info available</description>
    <styleUrl>#placemark-red</styleUrl>
    <Point><coordinates>107.9648,21.541903</coordinates></Point>
  </Placemark>
  <Placemark>
    <name>Dtaliapa Mall2</name>
    <description>No info available</description>
    <styleUrl>#placemark-red</styleUrl>
    <Point><coordinates>121.93066,11.953471</coordinates></Point>
  </Placemark>
  <Placemark>
    <name>Dumaguete Airpot</name>
    <description>No info available</description>
    <styleUrl>#placemark-red</styleUrl>
    <Point><coordinates>123.29413,9.332663</coordinates></Point>
  </Placemark>
  <Placemark>
    <name>Dumaguete-Cagayan de Oro Ferry</name>
    <description>No info available</description>
    <styleUrl>#placemark-red</styleUrl>
    <Point><coordinates>123.31827,9.313381</coordinates></Point>
  </Placemark>
  <Placemark>
    <name>Dusit Thani</name>
    <description>No info available</description>
    <styleUrl>#placemark-red</styleUrl>
    <Point><coordinates>121.0261,14.54853</coordinates></Point>
  </Placemark>
  <Placemark>
    <name>Dusit Zoo (Khao Din Wana)</name>
    <description>No info available</description>
    <styleUrl>#placemark-red</styleUrl>
    <Point><coordinates>100.51696,13.772693</coordinates></Point>
  </Placemark>
  <Placemark>
    <name>Dynasty</name>
    <description>No info available</description>
    <styleUrl>#placemark-red</styleUrl>
    <Point><coordinates>124.64329,8.476373</coordinates></Point>
  </Placemark>
  <Placemark>
    <name>Dynasty Inn</name>
    <description>No info available</description>
    <styleUrl>#placemark-red</styleUrl>
    <Point><coordinates>100.88041,12.930308</coordinates></Point>
  </Placemark>
  <Placemark>
    <name>El Centro Shake 60</name>
    <description>No info available</description>
    <styleUrl>#placemark-red</styleUrl>
    <Point><coordinates>121.92665,11.957722</coordinates></Point>
  </Placemark>
  <Placemark>
    <name>Embassy of Philippines</name>
    <description>No info available</description>
    <styleUrl>#placemark-red</styleUrl>
    <Point><coordinates>100.57404,13.727245</coordinates></Point>
  </Placemark>
  <Placemark>
    <name>Emporium</name>
    <description>No info available</description>
    <styleUrl>#placemark-red</styleUrl>
    <Point><coordinates>100.56953,13.730571</coordinates></Point>
  </Placemark>
  <Placemark>
    <name>End</name>
    <description>No info available</description>
    <styleUrl>#placemark-red</styleUrl>
    <Point><coordinates>110.49267,24.779355</coordinates></Point>
  </Placemark>
  <Placemark>
    <name>End Boat</name>
    <description>No info available</description>
    <styleUrl>#placemark-red</styleUrl>
    <Point><coordinates>110.47925,24.949781</coordinates></Point>
  </Placemark>
  <Placemark>
    <name>Ent</name>
    <description>No info available</description>
    <styleUrl>#placemark-red</styleUrl>
    <Point><coordinates>100.59769,13.741867</coordinates></Point>
  </Placemark>
  <Placemark>
    <name>Enter</name>
    <description>No info available</description>
    <styleUrl>#placemark-red</styleUrl>
    <Point><coordinates>124.79374,9.139675</coordinates></Point>
  </Placemark>
  <Placemark>
    <name>Enter 1</name>
    <description>No info available</description>
    <styleUrl>#placemark-red</styleUrl>
    <Point><coordinates>124.61239,8.407046</coordinates></Point>
  </Placemark>
  <Placemark>
    <name>Enter 2</name>
    <description>No info available</description>
    <styleUrl>#placemark-red</styleUrl>
    <Point><coordinates>121.9287,11.965825</coordinates></Point>
  </Placemark>
  <Placemark>
    <name>Erawan National Park (Cdg Gud)</name>
    <description>No info available</description>
    <styleUrl>#placemark-red</styleUrl>
    <Point><coordinates>99.144617,14.374581</coordinates></Point>
  </Placemark>
  <Placemark>
    <name>Erawan National Park Preservtn</name>
    <description>No info available</description>
    <styleUrl>#placemark-red</styleUrl>
    <Point><coordinates>99.073936,14.249997</coordinates></Point>
  </Placemark>
  <Placemark>
    <name>Erawan Waterfall</name>
    <description>No info available</description>
    <styleUrl>#placemark-red</styleUrl>
    <Point><coordinates>99.142686,14.372521</coordinates></Point>
  </Placemark>
  <Placemark>
    <name>Erawan5</name>
    <description>No info available</description>
    <styleUrl>#placemark-red</styleUrl>
    <Point><coordinates>99.14186,14.363721</coordinates></Point>
  </Placemark>
  <Placemark>
    <name>Erus Mall</name>
    <description>No info available</description>
    <styleUrl>#placemark-red</styleUrl>
    <Point><coordinates>121.93153,11.954157</coordinates></Point>
  </Placemark>
  <Placemark>
    <name>Esplanade Cineplex</name>
    <description>No info available</description>
    <styleUrl>#placemark-red</styleUrl>
    <Point><coordinates>100.56975,13.765826</coordinates></Point>
  </Placemark>
  <Placemark>
    <name>Euro Church</name>
    <description>No info available</description>
    <styleUrl>#placemark-red</styleUrl>
    <Point><coordinates>106.69927,10.779599</coordinates></Point>
  </Placemark>
  <Placemark>
    <name>Exit2</name>
    <description>No info available</description>
    <styleUrl>#placemark-red</styleUrl>
    <Point><coordinates>106.6947,10.776195</coordinates></Point>
  </Placemark>
  <Placemark>
    <name>Falls</name>
    <description>No info available</description>
    <styleUrl>#placemark-red</styleUrl>
    <Point><coordinates>124.18558,8.159483</coordinates></Point>
  </Placemark>
  <Placemark>
    <name>Familymart</name>
    <description>No info available</description>
    <styleUrl>#placemark-red</styleUrl>
    <Point><coordinates>100.05768,9.52227</coordinates></Point>
  </Placemark>
  <Placemark>
    <name>Fammart</name>
    <description>No info available</description>
    <styleUrl>#placemark-red</styleUrl>
    <Point><coordinates>100.065,9.551061</coordinates></Point>
  </Placemark>
  <Placemark>
    <name>Farmers Cubao</name>
    <description>No info available</description>
    <styleUrl>#placemark-red</styleUrl>
    <Point><coordinates>121.05174,14.62042</coordinates></Point>
  </Placemark>
  <Placemark>
    <name>Filling Station</name>
    <description>No info available</description>
    <styleUrl>#placemark-red</styleUrl>
    <Point><coordinates>121.0298,14.562997</coordinates></Point>
  </Placemark>
  <Placemark>
    <name>Firefly</name>
    <description>No info available</description>
    <styleUrl>#placemark-red</styleUrl>
    <Point><coordinates>99.984165,13.411198</coordinates></Point>
  </Placemark>
  <Placemark>
    <name>Fishin</name>
    <description>No info available</description>
    <styleUrl>#placemark-red</styleUrl>
    <Point><coordinates>100.6539,13.774162</coordinates></Point>
  </Placemark>
  <Placemark>
    <name>Five Star To DAU</name>
    <description>No info available</description>
    <styleUrl>#placemark-red</styleUrl>
    <Point><coordinates>121.04951,14.623665</coordinates></Point>
  </Placemark>
  <Placemark>
    <name>Flower Market</name>
    <description>No info available</description>
    <styleUrl>#placemark-red</styleUrl>
    <Point><coordinates>100.49747,13.741872</coordinates></Point>
  </Placemark>
  <Placemark>
    <name>Food</name>
    <description>No info available</description>
    <styleUrl>#placemark-red</styleUrl>
    <Point><coordinates>121.02492,14.552803</coordinates></Point>
  </Placemark>
  <Placemark>
    <name>Food Kasetsart</name>
    <description>No info available</description>
    <styleUrl>#placemark-red</styleUrl>
    <Point><coordinates>100.5667,13.849501</coordinates></Point>
  </Placemark>
  <Placemark>
    <name>Food Street</name>
    <description>No info available</description>
    <styleUrl>#placemark-red</styleUrl>
    <Point><coordinates>110.28337,25.274487</coordinates></Point>
  </Placemark>
  <Placemark>
    <name>Free</name>
    <description>No info available</description>
    <styleUrl>#placemark-red</styleUrl>
    <Point><coordinates>121.02665,14.524758</coordinates></Point>
  </Placemark>
  <Placemark>
    <name>Funky Villa</name>
    <description>No info available</description>
    <styleUrl>#placemark-red</styleUrl>
    <Point><coordinates>100.58504,13.732417</coordinates></Point>
  </Placemark>
  <Placemark>
    <name>G Suites 1500</name>
    <description>No info available</description>
    <styleUrl>#placemark-red</styleUrl>
    <Point><coordinates>121.93057,11.952202</coordinates></Point>
  </Placemark>
  <Placemark>
    <name>Gaisano Mall</name>
    <description>No info available</description>
    <styleUrl>#placemark-red</styleUrl>
    <Point><coordinates>125.6133,7.07777</coordinates></Point>
  </Placemark>
  <Placemark>
    <name>Garden Plaza Hotel-Suites</name>
    <description>No info available</description>
    <styleUrl>#placemark-red</styleUrl>
    <Point><coordinates>120.98917,14.580703</coordinates></Point>
  </Placemark>
  <Placemark>
    <name>Girls</name>
    <description>No info available</description>
    <styleUrl>#placemark-red</styleUrl>
    <Point><coordinates>100.59246,13.742958</coordinates></Point>
  </Placemark>
  <Placemark>
    <name>Gl Airport</name>
    <description>No info available</description>
    <styleUrl>#placemark-red</styleUrl>
    <Point><coordinates>110.04975,25.225198</coordinates></Point>
  </Placemark>
  <Placemark>
    <name>Gl Bus</name>
    <description>No info available</description>
    <styleUrl>#placemark-red</styleUrl>
    <Point><coordinates>110.27942,25.264306</coordinates></Point>
  </Placemark>
  <Placemark>
    <name>GL Bus</name>
    <description>No info available</description>
    <styleUrl>#placemark-red</styleUrl>
    <Point><coordinates>110.28856,25.262451</coordinates></Point>
  </Placemark>
  <Placemark>
    <name>GL Temple</name>
    <description>No info available</description>
    <styleUrl>#placemark-red</styleUrl>
    <Point><coordinates>110.28981,25.273744</coordinates></Point>
  </Placemark>
  <Placemark>
    <name>Gogo</name>
    <description>No info available</description>
    <styleUrl>#placemark-red</styleUrl>
    <Point><coordinates>106.69403,10.767259</coordinates></Point>
  </Placemark>
  <Placemark>
    <name>Good Rs</name>
    <description>No info available</description>
    <styleUrl>#placemark-red</styleUrl>
    <Point><coordinates>105.85183,21.036578</coordinates></Point>
  </Placemark>
  <Placemark>
    <name>Grand</name>
    <description>No info available</description>
    <styleUrl>#placemark-red</styleUrl>
    <Point><coordinates>124.6442,8.477226</coordinates></Point>
  </Placemark>
  <Placemark>
    <name>Grand Palace</name>
    <description>No info available</description>
    <styleUrl>#placemark-red</styleUrl>
    <Point><coordinates>100.49177,13.750055</coordinates></Point>
  </Placemark>
  <Placemark>
    <name>Grand Theater</name>
    <description>No info available</description>
    <styleUrl>#placemark-red</styleUrl>
    <Point><coordinates>121.46618,31.235638</coordinates></Point>
  </Placemark>
  <Placemark>
    <name>Green Mango</name>
    <description>No info available</description>
    <styleUrl>#placemark-red</styleUrl>
    <Point><coordinates>100.06353,9.532995</coordinates></Point>
  </Placemark>
  <Placemark>
    <name>Greenbelt 2</name>
    <description>No info available</description>
    <styleUrl>#placemark-red</styleUrl>
    <Point><coordinates>121.01994,14.550963</coordinates></Point>
  </Placemark>
  <Placemark>
    <name>Greenhills Shopping Center</name>
    <description>No info available</description>
    <styleUrl>#placemark-red</styleUrl>
    <Point><coordinates>121.05007,14.602289</coordinates></Point>
  </Placemark>
  <Placemark>
    <name>Gv Hotel</name>
    <description>No info available</description>
    <styleUrl>#placemark-red</styleUrl>
    <Point><coordinates>124.71695,9.250039</coordinates></Point>
  </Placemark>
  <Placemark>
    <name>Gym</name>
    <description>No info available</description>
    <styleUrl>#placemark-red</styleUrl>
    <Point><coordinates>124.74809,8.540217</coordinates></Point>
  </Placemark>
  <Placemark>
    <name>H</name>
    <description>No info available</description>
    <styleUrl>#placemark-red</styleUrl>
    <Point><coordinates>121.0346,14.627451</coordinates></Point>
  </Placemark>
  <Placemark>
    <name>Haad Yuan</name>
    <description>No info available</description>
    <styleUrl>#placemark-red</styleUrl>
    <Point><coordinates>100.07579,9.69337</coordinates></Point>
  </Placemark>
  <Placemark>
    <name>Hair Asoke</name>
    <description>No info available</description>
    <styleUrl>#placemark-red</styleUrl>
    <Point><coordinates>100.5626,13.745444</coordinates></Point>
  </Placemark>
  <Placemark>
    <name>Halong</name>
    <description>No info available</description>
    <styleUrl>#placemark-red</styleUrl>
    <Point><coordinates>107.40472,21.002339</coordinates></Point>
  </Placemark>
  <Placemark>
    <name>Hancity Plaza</name>
    <description>No info available</description>
    <styleUrl>#placemark-red</styleUrl>
    <Point><coordinates>121.46098,31.233524</coordinates></Point>
  </Placemark>
  <Placemark>
    <name>Handlebar Manila</name>
    <description>No info available</description>
    <styleUrl>#placemark-red</styleUrl>
    <Point><coordinates>121.0305,14.562335</coordinates></Point>
  </Placemark>
  <Placemark>
    <name>Hanoi Style Nice</name>
    <description>No info available</description>
    <styleUrl>#placemark-red</styleUrl>
    <Point><coordinates>105.85323,21.035653</coordinates></Point>
  </Placemark>
  <Placemark>
    <name>Hao Du Hotel</name>
    <description>No info available</description>
    <styleUrl>#placemark-red</styleUrl>
    <Point><coordinates>121.47711,31.229599</coordinates></Point>
  </Placemark>
  <Placemark>
    <name>Happening</name>
    <description>No info available</description>
    <styleUrl>#placemark-red</styleUrl>
    <Point><coordinates>110.29341,25.27825</coordinates></Point>
  </Placemark>
  <Placemark>
    <name>Happening 1</name>
    <description>No info available</description>
    <styleUrl>#placemark-red</styleUrl>
    <Point><coordinates>106.68288,10.790649</coordinates></Point>
  </Placemark>
  <Placemark>
    <name>Happening 2</name>
    <description>No info available</description>
    <styleUrl>#placemark-red</styleUrl>
    <Point><coordinates>121.47034,31.22141</coordinates></Point>
  </Placemark>
  <Placemark>
    <name>Havana</name>
    <description>No info available</description>
    <styleUrl>#placemark-red</styleUrl>
    <Point><coordinates>121.02184,14.552192</coordinates></Point>
  </Placemark>
  <Placemark>
    <name>Hayahay</name>
    <description>No info available</description>
    <styleUrl>#placemark-red</styleUrl>
    <Point><coordinates>123.31248,9.320844</coordinates></Point>
  </Placemark>
  <Placemark>
    <name>Hb Beach</name>
    <description>No info available</description>
    <styleUrl>#placemark-red</styleUrl>
    <Point><coordinates>107.04954,20.955417</coordinates></Point>
  </Placemark>
  <Placemark>
    <name>Hb Boats</name>
    <description>No info available</description>
    <styleUrl>#placemark-red</styleUrl>
    <Point><coordinates>107.02968,20.947335</coordinates></Point>
  </Placemark>
  <Placemark>
    <name>Health Plus Diagnostic</name>
    <description>No info available</description>
    <styleUrl>#placemark-red</styleUrl>
    <Point><coordinates>120.98406,14.573868</coordinates></Point>
  </Placemark>
  <Placemark>
    <name>Hh Beach</name>
    <description>No info available</description>
    <styleUrl>#placemark-red</styleUrl>
    <Point><coordinates>99.962589,12.569705</coordinates></Point>
  </Placemark>
  <Placemark>
    <name>High End Shopping</name>
    <description>No info available</description>
    <styleUrl>#placemark-red</styleUrl>
    <Point><coordinates>121.45472,31.218899</coordinates></Point>
  </Placemark>
  <Placemark>
    <name>Highway Exit</name>
    <description>No info available</description>
    <styleUrl>#placemark-red</styleUrl>
    <Point><coordinates>100.55073,13.742738</coordinates></Point>
  </Placemark>
  <Placemark>
    <name>Hill Tribe</name>
    <description>No info available</description>
    <styleUrl>#placemark-red</styleUrl>
    <Point><coordinates>98.882049,19.201151</coordinates></Point>
  </Placemark>
  <Placemark>
    <name><![CDATA[Hilton Hua Hin Resort & Spa]]></name>
    <description>No info available</description>
    <styleUrl>#placemark-red</styleUrl>
    <Point><coordinates>99.96018,12.57072</coordinates></Point>
  </Placemark>
  <Placemark>
    <name>Hindu Temple</name>
    <description>No info available</description>
    <styleUrl>#placemark-red</styleUrl>
    <Point><coordinates>100.52256,13.724376</coordinates></Point>
  </Placemark>
  <Placemark>
    <name>Hoang Trang</name>
    <description>No info available</description>
    <styleUrl>#placemark-red</styleUrl>
    <Point><coordinates>107.05227,20.962515</coordinates></Point>
  </Placemark>
  <Placemark>
    <name>Home</name>
    <description>No info available</description>
    <styleUrl>#placemark-red</styleUrl>
    <Point><coordinates>100.57976,13.72301</coordinates></Point>
  </Placemark>
  <Placemark>
    <name>Hosp</name>
    <description>No info available</description>
    <styleUrl>#placemark-red</styleUrl>
    <Point><coordinates>124.64972,8.48497</coordinates></Point>
  </Placemark>
  <Placemark>
    <name>Hospital</name>
    <description>No info available</description>
    <styleUrl>#placemark-red</styleUrl>
    <Point><coordinates>121.4739,31.224813</coordinates></Point>
  </Placemark>
  <Placemark>
    <name>Hospital Parkway</name>
    <description>No info available</description>
    <styleUrl>#placemark-red</styleUrl>
    <Point><coordinates>121.46699,31.219908</coordinates></Point>
  </Placemark>
  <Placemark>
    <name>Hot Hair</name>
    <description>No info available</description>
    <styleUrl>#placemark-red</styleUrl>
    <Point><coordinates>106.69577,10.772423</coordinates></Point>
  </Placemark>
  <Placemark>
    <name>Hotel</name>
    <description>No info available</description>
    <styleUrl>#placemark-red</styleUrl>
    <Point><coordinates>107.97295,21.531349</coordinates></Point>
  </Placemark>
  <Placemark>
    <name>Hotel 1</name>
    <description>No info available</description>
    <styleUrl>#placemark-red</styleUrl>
    <Point><coordinates>123.89425,9.626818</coordinates></Point>
  </Placemark>
  <Placemark>
    <name>Hotel 2</name>
    <description>No info available</description>
    <styleUrl>#placemark-red</styleUrl>
    <Point><coordinates>123.7712,9.548467</coordinates></Point>
  </Placemark>
  <Placemark>
    <name>Hotel 3</name>
    <description>No info available</description>
    <styleUrl>#placemark-red</styleUrl>
    <Point><coordinates>124.66728,9.246407</coordinates></Point>
  </Placemark>
  <Placemark>
    <name>Hotel Durban</name>
    <description>No info available</description>
    <styleUrl>#placemark-red</styleUrl>
    <Point><coordinates>121.02932,14.564053</coordinates></Point>
  </Placemark>
  <Placemark>
    <name>Hotel Durban 1</name>
    <description>No info available</description>
    <styleUrl>#placemark-red</styleUrl>
    <Point><coordinates>121.02933,14.564053</coordinates></Point>
  </Placemark>
  <Placemark>
    <name>Hotel Esencia</name>
    <description>No info available</description>
    <styleUrl>#placemark-red</styleUrl>
    <Point><coordinates>123.30541,9.308455</coordinates></Point>
  </Placemark>
  <Placemark>
    <name>Hotel Guest House</name>
    <description>No info available</description>
    <styleUrl>#placemark-red</styleUrl>
    <Point><coordinates>107.04685,20.958862</coordinates></Point>
  </Placemark>
  <Placemark>
    <name>Hotels Halong</name>
    <description>No info available</description>
    <styleUrl>#placemark-red</styleUrl>
    <Point><coordinates>107.04641,20.956041</coordinates></Point>
  </Placemark>
  <Placemark>
    <name>Hotspot</name>
    <description>No info available</description>
    <styleUrl>#placemark-red</styleUrl>
    <Point><coordinates>121.46818,31.222884</coordinates></Point>
  </Placemark>
  <Placemark>
    <name>House</name>
    <description>No info available</description>
    <styleUrl>#placemark-red</styleUrl>
    <Point><coordinates>121.45508,31.224526</coordinates></Point>
  </Placemark>
  <Placemark>
    <name>Hua Hin Mall</name>
    <description>No info available</description>
    <styleUrl>#placemark-red</styleUrl>
    <Point><coordinates>99.958768,12.558016</coordinates></Point>
  </Placemark>
  <Placemark>
    <name>Hua Hin Market Village</name>
    <description>No info available</description>
    <styleUrl>#placemark-red</styleUrl>
    <Point><coordinates>99.959301,12.557759</coordinates></Point>
  </Placemark>
  <Placemark>
    <name>Hua Hin Minibus</name>
    <description>No info available</description>
    <styleUrl>#placemark-red</styleUrl>
    <Point><coordinates>99.954911,12.573706</coordinates></Point>
  </Placemark>
  <Placemark>
    <name>Hua Hin Waterfront</name>
    <description>No info available</description>
    <styleUrl>#placemark-red</styleUrl>
    <Point><coordinates>99.959852,12.572491</coordinates></Point>
  </Placemark>
  <Placemark>
    <name>Hua Hin, Prachuap Khiri Khan</name>
    <description>No info available</description>
    <styleUrl>#placemark-red</styleUrl>
    <Point><coordinates>99.880615,12.530165</coordinates></Point>
  </Placemark>
  <Placemark>
    <name>Hua Lamphong Mrt Station 1</name>
    <description>No info available</description>
    <styleUrl>#placemark-red</styleUrl>
    <Point><coordinates>100.51671,13.737545</coordinates></Point>
  </Placemark>
  <Placemark>
    <name>Hua Mak Airlink</name>
    <description>No info available</description>
    <styleUrl>#placemark-red</styleUrl>
    <Point><coordinates>100.64518,13.737975</coordinates></Point>
  </Placemark>
  <Placemark>
    <name>Huai Khwang Mrt Station 4</name>
    <description>No info available</description>
    <styleUrl>#placemark-red</styleUrl>
    <Point><coordinates>100.57348,13.779216</coordinates></Point>
  </Placemark>
  <Placemark>
    <name>Huai Kwang Market</name>
    <description>No info available</description>
    <styleUrl>#placemark-red</styleUrl>
    <Point><coordinates>100.57206,13.778078</coordinates></Point>
  </Placemark>
  <Placemark>
    <name>Hung Vuong Plaza</name>
    <description>No info available</description>
    <styleUrl>#placemark-red</styleUrl>
    <Point><coordinates>106.66277,10.755354</coordinates></Point>
  </Placemark>
  <Placemark>
    <name>Ikea</name>
    <description>No info available</description>
    <styleUrl>#placemark-red</styleUrl>
    <Point><coordinates>121.43109,31.180077</coordinates></Point>
  </Placemark>
  <Placemark>
    <name>Ikea 1</name>
    <description>No info available</description>
    <styleUrl>#placemark-red</styleUrl>
    <Point><coordinates>121.4304,31.180095</coordinates></Point>
  </Placemark>
  <Placemark>
    <name>Ikea2</name>
    <description>No info available</description>
    <styleUrl>#placemark-red</styleUrl>
    <Point><coordinates>121.55649,31.164886</coordinates></Point>
  </Placemark>
  <Placemark>
    <name>Iligan City, Lanao Del Norte</name>
    <description>No info available</description>
    <styleUrl>#placemark-red</styleUrl>
    <Point><coordinates>124.21967,8.209534</coordinates></Point>
  </Placemark>
  <Placemark>
    <name>Inaka Japanes</name>
    <description>No info available</description>
    <styleUrl>#placemark-red</styleUrl>
    <Point><coordinates>122.956,10.682995</coordinates></Point>
  </Placemark>
  <Placemark>
    <name>Insomnia</name>
    <description>No info available</description>
    <styleUrl>#placemark-red</styleUrl>
    <Point><coordinates>100.55846,13.737979</coordinates></Point>
  </Placemark>
  <Placemark>
    <name>Interesting</name>
    <description>No info available</description>
    <styleUrl>#placemark-red</styleUrl>
    <Point><coordinates>122.95723,10.665279</coordinates></Point>
  </Placemark>
  <Placemark>
    <name>Internet</name>
    <description>No info available</description>
    <styleUrl>#placemark-red</styleUrl>
    <Point><coordinates>122.84036,10.524772</coordinates></Point>
  </Placemark>
  <Placemark>
    <name>Internet Bago</name>
    <description>No info available</description>
    <styleUrl>#placemark-red</styleUrl>
    <Point><coordinates>122.84061,10.52501</coordinates></Point>
  </Placemark>
  <Placemark>
    <name>Internet Bago 1</name>
    <description>No info available</description>
    <styleUrl>#placemark-red</styleUrl>
    <Point><coordinates>122.84079,10.525001</coordinates></Point>
  </Placemark>
  <Placemark>
    <name>Internet Guy</name>
    <description>No info available</description>
    <styleUrl>#placemark-red</styleUrl>
    <Point><coordinates>123.27,9.076751</coordinates></Point>
  </Placemark>
  <Placemark>
    <name>It Fortune Town</name>
    <description>No info available</description>
    <styleUrl>#placemark-red</styleUrl>
    <Point><coordinates>100.56576,13.759777</coordinates></Point>
  </Placemark>
  <Placemark>
    <name>Italian</name>
    <description>No info available</description>
    <styleUrl>#placemark-red</styleUrl>
    <Point><coordinates>107.04711,20.954687</coordinates></Point>
  </Placemark>
  <Placemark>
    <name>J</name>
    <description>No info available</description>
    <styleUrl>#placemark-red</styleUrl>
    <Point><coordinates>121.05882,14.640261</coordinates></Point>
  </Placemark>
  <Placemark>
    <name>J Center</name>
    <description>No info available</description>
    <styleUrl>#placemark-red</styleUrl>
    <Point><coordinates>123.93389,10.334975</coordinates></Point>
  </Placemark>
  <Placemark>
    <name>Jackilyn</name>
    <description>No info available</description>
    <styleUrl>#placemark-red</styleUrl>
    <Point><coordinates>120.57173,15.16356</coordinates></Point>
  </Placemark>
  <Placemark>
    <name>Jade Pagoda</name>
    <description>No info available</description>
    <styleUrl>#placemark-red</styleUrl>
    <Point><coordinates>106.69802,10.791764</coordinates></Point>
  </Placemark>
  <Placemark>
    <name>Jammers</name>
    <description>No info available</description>
    <styleUrl>#placemark-red</styleUrl>
    <Point><coordinates>121.92476,11.961521</coordinates></Point>
  </Placemark>