<?xml version="1.0" encoding="UTF-8"?>
<kml xmlns="http://earth.google.com/kml/2.2">
<Document>
  <Style id="placemark-blue">
    <IconStyle>
      <Icon>
        <href>http://mapswith.me/placemarks/placemark-blue.png</href>
      </Icon>
    </IconStyle>
  </Style>
  <Style id="placemark-brown">
    <IconStyle>
      <Icon>
        <href>http://mapswith.me/placemarks/placemark-brown.png</href>
      </Icon>
    </IconStyle>
  </Style>
  <Style id="placemark-green">
    <IconStyle>
      <Icon>
        <href>http://mapswith.me/placemarks/placemark-green.png</href>
      </Icon>
    </IconStyle>
  </Style>
  <Style id="placemark-orange">
    <IconStyle>
      <Icon>
        <href>http://mapswith.me/placemarks/placemark-orange.png</href>
      </Icon>
    </IconStyle>
  </Style>
  <Style id="placemark-pink">
    <IconStyle>
      <Icon>
        <href>http://mapswith.me/placemarks/placemark-pink.png</href>
      </Icon>
    </IconStyle>
  </Style>
  <Style id="placemark-purple">
    <IconStyle>
      <Icon>
        <href>http://mapswith.me/placemarks/placemark-purple.png</href>
      </Icon>
    </IconStyle>
  </Style>
  <Style id="placemark-red">
    <IconStyle>
      <Icon>
        <href>http://mapswith.me/placemarks/placemark-red.png</href>
      </Icon>
    </IconStyle>
  </Style>
  <Style id="placemark-yellow">
    <IconStyle>
      <Icon>
        <href>http://mapswith.me/placemarks/placemark-yellow.png</href>
      </Icon>
    </IconStyle>
  </Style>
  <name>Marokko</name>
  <visibility>1</visibility>
  <Placemark>
    <name>Hassan II-moskee</name>
    <TimeStamp><when>2014-02-09T09:29:39Z</when></TimeStamp>
    <styleUrl>#placemark-red</styleUrl>
    <Point><coordinates>-7.6327448,33.608444</coordinates></Point>
    <ExtendedData xmlns:mwm="http://mapswith.me">
      <mwm:scale>17</mwm:scale>
    </ExtendedData>
  </Placemark>
  <Placemark>
    <name>مطار Airport Casablanca‎</name>
    <TimeStamp><when>2014-02-12T07:52:07Z</when></TimeStamp>
    <styleUrl>#placemark-red</styleUrl>
    <Point><coordinates>-7.5821516,33.369292</coordinates></Point>
    <ExtendedData xmlns:mwm="http://mapswith.me">
      <mwm:scale>13</mwm:scale>
    </ExtendedData>
  </Placemark>
  <Placemark>
    <name>Hotel Maamoura Casablanca</name>
    <TimeStamp><when>2014-02-12T07:54:03Z</when></TimeStamp>
    <styleUrl>#placemark-red</styleUrl>
    <Point><coordinates>-7.6131603,33.592528</coordinates></Point>
    <ExtendedData xmlns:mwm="http://mapswith.me">
      <mwm:scale>17</mwm:scale>
    </ExtendedData>
  </Placemark>
  <Placemark>
    <name>Kasbah Rabat</name>
    <TimeStamp><when>2014-02-12T07:55:48Z</when></TimeStamp>
    <styleUrl>#placemark-red</styleUrl>
    <Point><coordinates>-6.8242704,34.005583</coordinates></Point>
    <ExtendedData xmlns:mwm="http://mapswith.me">
      <mwm:scale>16</mwm:scale>
    </ExtendedData>
  </Placemark>
  <Placemark>
    <name>Kashbah Rabat</name>
    <TimeStamp><when>2014-02-12T07:56:47Z</when></TimeStamp>
    <styleUrl>#placemark-red</styleUrl>
    <Point><coordinates>-6.8377512,34.030284</coordinates></Point>
    <ExtendedData xmlns:mwm="http://mapswith.me">
      <mwm:scale>17</mwm:scale>
    </ExtendedData>
  </Placemark>
  <Placemark>
    <name>Musée des Oudayas Rabat</name>
    <TimeStamp><when>2014-02-12T07:57:15Z</when></TimeStamp>
    <styleUrl>#placemark-red</styleUrl>
    <Point><coordinates>-6.8359007,34.030408</coordinates></Point>
    <ExtendedData xmlns:mwm="http://mapswith.me">
      <mwm:scale>17</mwm:scale>
    </ExtendedData>
  </Placemark>
  <Placemark>
    <name>Tajin Rabat</name>
    <TimeStamp><when>2014-02-12T08:00:30Z</when></TimeStamp>
    <styleUrl>#placemark-red</styleUrl>
    <Point><coordinates>-6.8338502,34.026867</coordinates></Point>
    <ExtendedData xmlns:mwm="http://mapswith.me">
      <mwm:scale>18</mwm:scale>
    </ExtendedData>
  </Placemark>
  <Placemark>
    <name>Hotel Majestic Meknes</name>
    <TimeStamp><when>2014-02-12T08:03:36Z</when></TimeStamp>
    <styleUrl>#placemark-red</styleUrl>
    <Point><coordinates>-5.5461665,33.89888</coordinates></Point>
    <ExtendedData xmlns:mwm="http://mapswith.me">
      <mwm:scale>17</mwm:scale>
    </ExtendedData>
  </Placemark>
  <Placemark>
    <name>Moulay Idriss Zahroun</name>
    <TimeStamp><when>2014-02-12T08:05:36Z</when></TimeStamp>
    <styleUrl>#placemark-red</styleUrl>
    <Point><coordinates>-5.5218409,34.055477</coordinates></Point>
    <ExtendedData xmlns:mwm="http://mapswith.me">
      <mwm:scale>17</mwm:scale>
    </ExtendedData>
  </Placemark>
  <Placemark>
    <name>‎Volubilis</name>
    <description>Volubilis was een Romeinse nederzetting in het noorden van het huidige Marokko. Vermoedelijk is de stad gebouwd op de resten van een eerdere stad van deCarthagers uit de 3e eeuw voor Chr.
Volubilis was het bestuurlijke centrum voor dit deel van Romeins Afrika. In de vruchtbare regio werd grootschalig graan verbouwd en geëxporteerd naar Rome. In Volubilis vonden ook de contacten plaats tussen de Berber stammen en de Romeinen. De Romeinen zijn er nooit in geslaagd deze stammen te onderwerpen. Wanneer dat wederzijds voordeel opleverde werkten de Berbers met de Romeinen samen.
Anders dan in het geval van veel andere Romeinse steden werd Volubilis niet verlaten nadat de Romeinen in de 3e eeuw hun steunpunten in dit deel van Afrika waren kwijtgeraakt. Het Latijn bleef nog eeuwenlang in gebruik en werd pas door deArabische opmars aan het einde van de 7e eeuw verdrongen.
Gedurende een periode van 1000 jaar bleven er mensen in Volubilis wonen. De stad werd pas in de 18e eeuw verlaten om te worden afgebroken en bouwmateriaal te leveren voor de constructie van de paleizen van Moulay Ismail in het nabijgelegenMeknes. Als deze afbraak niet had plaatsgevonden dan was Volubilis misschien een van de best bewaarde Romeinse locaties geweest. Desondanks zijn de ruïnes in goede staat en bevinden zo’n 30 mozaïeken van hoge kwaliteit zich nog op hun originele plaats.
In 1997 is Volubilis toegevoegd aan de UNESCO Werelderfgoedlijst.
Dichtbij Volubilis ligt het stadje Moulay Idriss. Dit stadje is vanaf Volubilis te zien.</description>
    <TimeStamp><when>2014-02-12T08:06:14Z</when></TimeStamp>
    <styleUrl>#placemark-red</styleUrl>
    <Point><coordinates>-5.5522491,34.071839</coordinates></Point>
    <ExtendedData xmlns:mwm="http://mapswith.me">
      <mwm:scale>17</mwm:scale>
    </ExtendedData>
  </Placemark>
  <Placemark>
    <name>Airport Marrakech</name>
    <TimeStamp><when>2014-02-12T09:14:59Z</when></TimeStamp>
    <styleUrl>#placemark-red</styleUrl>
    <Point><coordinates>-8.0259084,31.602259</coordinates></Point>
    <ExtendedData xmlns:mwm="http://mapswith.me">
      <mwm:scale>15</mwm:scale>
    </ExtendedData>
  </Placemark>
  <Placemark>
    <name>Djemaa el Fna Plein Marrakesh</name>
    <TimeStamp><when>2014-02-12T09:17:03Z</when></TimeStamp>
    <styleUrl>#placemark-red</styleUrl>
    <Point><coordinates>-7.9890253,31.626035</coordinates></Point>
    <ExtendedData xmlns:mwm="http://mapswith.me">
      <mwm:scale>19</mwm:scale>
    </ExtendedData>
  </Placemark>
  <Placemark>
    <name>Jardin Majorelle Marrakech</name>
    <TimeStamp><when>2014-02-12T09:19:36Z</when></TimeStamp>
    <styleUrl>#placemark-red</styleUrl>
    <Point><coordinates>-8.0028642,31.641464</coordinates></Point>
    <ExtendedData xmlns:mwm="http://mapswith.me">
      <mwm:scale>15</mwm:scale>
    </ExtendedData>
  </Placemark>
  <Placemark>
    <name>Hotel 3 Palmiers Marrakech</name>
    <TimeStamp><when>2014-02-12T09:21:22Z</when></TimeStamp>
    <styleUrl>#placemark-red</styleUrl>
    <Point><coordinates>-8.0102017,31.635722</coordinates></Point>
    <ExtendedData xmlns:mwm="http://mapswith.me">
      <mwm:scale>17</mwm:scale>
    </ExtendedData>
  </Placemark>
  <Placemark>
    <name>Argan Cooperative</name>
    <description>Grootste</description>
    <TimeStamp><when>2014-02-12T09:22:45Z</when></TimeStamp>
    <styleUrl>#placemark-red</styleUrl>
    <Point><coordinates>-9.4891968,31.539073</coordinates></Point>
    <ExtendedData xmlns:mwm="http://mapswith.me">
      <mwm:scale>14</mwm:scale>
    </ExtendedData>
  </Placemark>
  <Placemark>
    <name>Diabat</name>
    <TimeStamp><when>2014-02-12T09:23:27Z</when></TimeStamp>
    <styleUrl>#placemark-red</styleUrl>
    <Point><coordinates>-9.7655382,31.479236</coordinates></Point>
    <ExtendedData xmlns:mwm="http://mapswith.me">
      <mwm:scale>12</mwm:scale>
    </ExtendedData>
  </Placemark>
  <Placemark>
    <name>Restaurant Il Mare Essaouira</name>
    <TimeStamp><when>2014-02-12T09:24:03Z</when></TimeStamp>
    <styleUrl>#placemark-red</styleUrl>
    <Point><coordinates>-9.7719755,31.514923</coordinates></Point>
    <ExtendedData xmlns:mwm="http://mapswith.me">
      <mwm:scale>19</mwm:scale>
    </ExtendedData>
  </Placemark>
  <Placemark>
    <name>Riad Chakir Essaouira</name>
    <TimeStamp><when>2014-02-12T09:25:31Z</when></TimeStamp>
    <styleUrl>#placemark-red</styleUrl>
    <Point><coordinates>-9.768841,31.513175</coordinates></Point>
    <ExtendedData xmlns:mwm="http://mapswith.me">
      <mwm:scale>19</mwm:scale>
    </ExtendedData>
  </Placemark>
  <Placemark>
    <name>Haven Essaouira</name>
    <TimeStamp><when>2014-02-12T09:28:05Z</when></TimeStamp>
    <styleUrl>#placemark-red</styleUrl>
    <Point><coordinates>-9.7740372,31.509501</coordinates></Point>
    <ExtendedData xmlns:mwm="http://mapswith.me">
      <mwm:scale>17</mwm:scale>
    </ExtendedData>
  </Placemark>
  <Placemark>
    <name>Lunchplek bij meer Midelt</name>
    <TimeStamp><when>2014-02-12T09:31:21Z</when></TimeStamp>
    <styleUrl>#placemark-red</styleUrl>
    <Point><coordinates>-5.0077426,33.074398</coordinates></Point>
    <ExtendedData xmlns:mwm="http://mapswith.me">
      <mwm:scale>14</mwm:scale>
    </ExtendedData>
  </Placemark>
  <Placemark>
    <name>Merzouga</name>
    <TimeStamp><when>2014-02-12T09:34:29Z</when></TimeStamp>
    <styleUrl>#placemark-red</styleUrl>
    <Point><coordinates>-4.0135141,31.099081</coordinates></Point>
    <ExtendedData xmlns:mwm="http://mapswith.me">
      <mwm:scale>13</mwm:scale>
    </ExtendedData>
  </Placemark>
  <Placemark>
    <name>Erg Chebi</name>
    <TimeStamp><when>2014-02-12T09:35:27Z</when></TimeStamp>
    <styleUrl>#placemark-red</styleUrl>
    <Point><coordinates>-3.9954862,31.036127</coordinates></Point>
    <ExtendedData xmlns:mwm="http://mapswith.me">
      <mwm:scale>14</mwm:scale>
    </ExtendedData>
  </Placemark>
  <Placemark>
    <name>Kampement</name>
    <TimeStamp><when>2014-02-12T09:36:46Z</when></TimeStamp>
    <styleUrl>#placemark-red</styleUrl>
    <Point><coordinates>-3.9942979,31.21578</coordinates></Point>
    <ExtendedData xmlns:mwm="http://mapswith.me">
      <mwm:scale>16</mwm:scale>
    </ExtendedData>
  </Placemark>
  <Placemark>
    <name>Zagora زاكورة</name>
    <TimeStamp><when>2014-02-12T09:39:43Z</when></TimeStamp>
    <styleUrl>#placemark-red</styleUrl>
    <Point><coordinates>-5.8371527,30.328049</coordinates></Point>
    <ExtendedData xmlns:mwm="http://mapswith.me">
      <mwm:scale>9</mwm:scale>
    </ExtendedData>
  </Placemark>
  <Placemark>
    <name>M'Hamid El Ghizlane امحاميد الغزلان</name>
    <TimeStamp><when>2014-02-12T09:40:29Z</when></TimeStamp>
    <styleUrl>#placemark-red</styleUrl>
    <Point><coordinates>-5.7229101,29.829061</coordinates></Point>
    <ExtendedData xmlns:mwm="http://mapswith.me">
      <mwm:scale>13</mwm:scale>
    </ExtendedData>
  </Placemark>
  <Placemark>
    <name>Safi آسفي</name>
    <TimeStamp><when>2014-02-12T09:40:50Z</when></TimeStamp>
    <styleUrl>#placemark-red</styleUrl>
    <Point><coordinates>-9.2395329,32.299423</coordinates></Point>
    <ExtendedData xmlns:mwm="http://mapswith.me">
      <mwm:scale>11</mwm:scale>
    </ExtendedData>
  </Placemark>
  <Placemark>
    <name>Fès فاس</name>
    <TimeStamp><when>2014-02-13T15:25:46Z</when></TimeStamp>
    <styleUrl>#placemark-red</styleUrl>
    <Point><coordinates>-5.0133497,34.034118</coordinates></Point>
    <ExtendedData xmlns:mwm="http://mapswith.me">
      <mwm:scale>9</mwm:scale>
    </ExtendedData>
  </Placemark>
  <Placemark>
    <name>Quartier des tanneurs Fes</name>
    <TimeStamp><when>2014-02-13T15:30:23Z</when></TimeStamp>
    <styleUrl>#placemark-red</styleUrl>
    <Point><coordinates>-4.970934,34.065934</coordinates></Point>
    <ExtendedData xmlns:mwm="http://mapswith.me">
      <mwm:scale>17</mwm:scale>
    </ExtendedData>
  </Placemark>
  <Placemark>
    <name>Roof view leatherworks Fes</name>
    <TimeStamp><when>2014-02-13T15:31:02Z</when></TimeStamp>
    <styleUrl>#placemark-red</styleUrl>
    <Point><coordinates>-4.9738147,34.064469</coordinates></Point>
    <ExtendedData xmlns:mwm="http://mapswith.me">
      <mwm:scale>17</mwm:scale>
    </ExtendedData>
  </Placemark>
  <Placemark>
    <name>Mosque Al-Andalous Fes</name>
    <TimeStamp><when>2014-02-13T15:32:01Z</when></TimeStamp>
    <styleUrl>#placemark-red</styleUrl>
    <Point><coordinates>-4.9682169,34.063227</coordinates></Point>
    <ExtendedData xmlns:mwm="http://mapswith.me">
      <mwm:scale>17</mwm:scale>
    </ExtendedData>
  </Placemark>
  <Placemark>
    <name>Todra Kloof</name>
    <TimeStamp><when>2014-02-13T23:25:04Z</when></TimeStamp>
    <styleUrl>#placemark-red</styleUrl>
    <Point><coordinates>-5.594569,31.588654</coordinates></Point>
    <ExtendedData xmlns:mwm="http://mapswith.me">
      <mwm:scale>17</mwm:scale>
    </ExtendedData>
  </Placemark>
  <Placemark>
    <name>Erfoud</name>
    <TimeStamp><when>2014-02-13T23:26:05Z</when></TimeStamp>
    <styleUrl>#placemark-red</styleUrl>
    <Point><coordinates>-4.2320766,31.432606</coordinates></Point>
    <ExtendedData xmlns:mwm="http://mapswith.me">
      <mwm:scale>10</mwm:scale>
    </ExtendedData>
  </Placemark>
  <Placemark>
    <name>Ifrane</name>
    <TimeStamp><when>2014-02-13T23:27:19Z</when></TimeStamp>
    <styleUrl>#placemark-red</styleUrl>
    <Point><coordinates>-5.1074075,33.527604</coordinates></Point>
    <ExtendedData xmlns:mwm="http://mapswith.me">
      <mwm:scale>12</mwm:scale>
    </ExtendedData>
  </Placemark>
  <Placemark>
    <name>Agadir</name>
    <TimeStamp><when>2014-02-13T23:27:56Z</when></TimeStamp>
    <styleUrl>#placemark-red</styleUrl>
    <Point><coordinates>-9.583019,30.417021</coordinates></Point>
    <ExtendedData xmlns:mwm="http://mapswith.me">
      <mwm:scale>6</mwm:scale>
    </ExtendedData>
  </Placemark>
  <Placemark>
    <name>Boumalne Dades</name>
    <TimeStamp><when>2014-02-13T23:29:43Z</when></TimeStamp>
    <styleUrl>#placemark-red</styleUrl>
    <Point><coordinates>-5.986026,31.374143</coordinates></Point>
    <ExtendedData xmlns:mwm="http://mapswith.me">
      <mwm:scale>9</mwm:scale>
    </ExtendedData>
  </Placemark>
  <Placemark>
    <name>Hotel Xaluca</name>
    <TimeStamp><when>2014-02-13T23:32:11Z</when></TimeStamp>
    <styleUrl>#placemark-red</styleUrl>
    <Point><coordinates>-5.9826149,31.374194</coordinates></Point>
    <ExtendedData xmlns:mwm="http://mapswith.me">
      <mwm:scale>16</mwm:scale>
    </ExtendedData>
  </Placemark>
  <Placemark>
    <name>Ouarzazate</name>
    <TimeStamp><when>2014-02-13T23:39:04Z</when></TimeStamp>
    <styleUrl>#placemark-red</styleUrl>
    <Point><coordinates>-6.9018053,30.920618</coordinates></Point>
    <ExtendedData xmlns:mwm="http://mapswith.me">
      <mwm:scale>11</mwm:scale>
    </ExtendedData>
  </Placemark>
  <Placemark>
    <name>Ait Ben  (Moulay Aissa Ben Driss)</name>
    <TimeStamp><when>2014-02-13T23:41:32Z</when></TimeStamp>
    <styleUrl>#placemark-red</styleUrl>
    <Point><coordinates>-6.7104371,32.110445</coordinates></Point>
    <ExtendedData xmlns:mwm="http://mapswith.me">
      <mwm:scale>9</mwm:scale>
    </ExtendedData>
  </Placemark>
  <Placemark>
    <name>Restaurant Capri</name>
    <TimeStamp><when>2014-03-30T12:45:54Z</when></TimeStamp>
    <styleUrl>#placemark-red</styleUrl>
    <Point><coordinates>-6.8348455,34.01621</coordinates></Point>
    <ExtendedData xmlns:mwm="http://mapswith.me">
      <mwm:scale>19</mwm:scale>
    </ExtendedData>
  </Placemark>
  <Placemark>
    <name>Cafe Maure</name>
    <TimeStamp><when>2014-03-30T13:53:27Z</when></TimeStamp>
    <styleUrl>#placemark-red</styleUrl>
    <Point><coordinates>-6.8349323,34.030457</coordinates></Point>
    <ExtendedData xmlns:mwm="http://mapswith.me">
      <mwm:scale>17</mwm:scale>
    </ExtendedData>
  </Placemark>
  <Placemark>
    <name>Hotel Fes Inn</name>
    <TimeStamp><when>2014-03-31T17:45:16Z</when></TimeStamp>
    <styleUrl>#placemark-red</styleUrl>
    <Point><coordinates>-4.9891915,34.027687</coordinates></Point>
    <ExtendedData xmlns:mwm="http://mapswith.me">
      <mwm:scale>16</mwm:scale>
    </ExtendedData>
  </Placemark>
  <Placemark>
    <name>Restaurant  Zagora</name>
    <TimeStamp><when>2014-03-31T17:47:57Z</when></TimeStamp>
    <styleUrl>#placemark-red</styleUrl>
    <Point><coordinates>-4.9971457,34.03462</coordinates></Point>
    <ExtendedData xmlns:mwm="http://mapswith.me">
      <mwm:scale>18</mwm:scale>
    </ExtendedData>
  </Placemark>
  <Placemark>
    <name>Fes Viewpoint</name>
    <TimeStamp><when>2014-04-01T09:21:16Z</when></TimeStamp>
    <styleUrl>#placemark-red</styleUrl>
    <Point><coordinates>-4.9706254,34.054262</coordinates></Point>
    <ExtendedData xmlns:mwm="http://mapswith.me">
      <mwm:scale>18</mwm:scale>
    </ExtendedData>
  </Placemark>
  <Placemark>
    <name>Restaurant Dakterras Blue  ..... Fes</name>
    <TimeStamp><when>2014-04-01T13:58:24Z</when></TimeStamp>
    <styleUrl>#placemark-red</styleUrl>
    <Point><coordinates>-4.9743032,34.06349</coordinates></Point>
    <ExtendedData xmlns:mwm="http://mapswith.me">
      <mwm:scale>18</mwm:scale>
    </ExtendedData>
  </Placemark>
  <Placemark>
    <name>Park Fes</name>
    <TimeStamp><when>2014-04-01T14:57:22Z</when></TimeStamp>
    <styleUrl>#placemark-red</styleUrl>
    <Point><coordinates>-4.9864273,34.058336</coordinates></Point>
    <ExtendedData xmlns:mwm="http://mapswith.me">
      <mwm:scale>17</mwm:scale>
    </ExtendedData>
  </Placemark>
  <Placemark>
    <name>Café Clock Fes</name>
    <TimeStamp><when>2014-04-01T14:57:55Z</when></TimeStamp>
    <styleUrl>#placemark-red</styleUrl>
    <Point><coordinates>-4.9832268,34.062561</coordinates></Point>
    <ExtendedData xmlns:mwm="http://mapswith.me">
      <mwm:scale>17</mwm:scale>
    </ExtendedData>
  </Placemark>
  <Placemark>
    <name>Nécropole du Chellah ooievaarsnesten</name>
    <TimeStamp><when>2014-04-01T19:31:33Z</when></TimeStamp>
    <styleUrl>#placemark-red</styleUrl>
    <Point><coordinates>-6.821763,34.0071</coordinates></Point>
    <ExtendedData xmlns:mwm="http://mapswith.me">
      <mwm:scale>18</mwm:scale>
    </ExtendedData>
  </Placemark>
  <Placemark>
    <name>Marjane Fes route d'Ifrane</name>
    <TimeStamp><when>2014-04-02T08:19:54Z</when></TimeStamp>
    <styleUrl>#placemark-red</styleUrl>
    <Point><coordinates>-4.9995289,33.9856</coordinates></Point>
    <ExtendedData xmlns:mwm="http://mapswith.me">
      <mwm:scale>17</mwm:scale>
    </ExtendedData>
  </Placemark>
  <Placemark>
    <name>Zaida</name>
    <TimeStamp><when>2014-04-02T08:35:56Z</when></TimeStamp>
    <styleUrl>#placemark-red</styleUrl>
    <Point><coordinates>-4.9602294,32.819265</coordinates></Point>
    <ExtendedData xmlns:mwm="http://mapswith.me">
      <mwm:scale>12</mwm:scale>
    </ExtendedData>
  </Placemark>
  <Placemark>
    <name>Wild Monkeys</name>
    <TimeStamp><when>2014-04-02T10:57:16Z</when></TimeStamp>
    <styleUrl>#placemark-red</styleUrl>
    <Point><coordinates>-5.1781912,33.420238</coordinates></Point>
    <ExtendedData xmlns:mwm="http://mapswith.me">
      <mwm:scale>16</mwm:scale>
    </ExtendedData>
  </Placemark>
  <Placemark>
    <name>Mogelijke Lunchplek Timhadit</name>
    <TimeStamp><when>2014-04-02T11:42:03Z</when></TimeStamp>
    <styleUrl>#placemark-red</styleUrl>
    <Point><coordinates>-5.0593424,33.235481</coordinates></Point>
    <ExtendedData xmlns:mwm="http://mapswith.me">
      <mwm:scale>14</mwm:scale>
    </ExtendedData>
  </Placemark>
  <Placemark>
    <name>Meski</name>
    <TimeStamp><when>2014-04-02T21:58:56Z</when></TimeStamp>
    <styleUrl>#placemark-red</styleUrl>
    <Point><coordinates>-4.2814612,31.86052</coordinates></Point>
    <ExtendedData xmlns:mwm="http://mapswith.me">
      <mwm:scale>15</mwm:scale>
    </ExtendedData>
  </Placemark>
  <Placemark>
    <name>Restaurant Des Dunes Erfoud</name>
    <TimeStamp><when>2014-04-02T22:00:35Z</when></TimeStamp>
    <styleUrl>#placemark-red</styleUrl>
    <Point><coordinates>-4.23032,31.442271</coordinates></Point>
    <ExtendedData xmlns:mwm="http://mapswith.me">
      <mwm:scale>17</mwm:scale>
    </ExtendedData>
  </Placemark>
  <Placemark>
    <name>moskee Mulay Idriss</name>
    <TimeStamp><when>2014-04-02T22:05:07Z</when></TimeStamp>
    <styleUrl>#placemark-red</styleUrl>
    <Point><coordinates>-5.5224981,34.0546</coordinates></Point>
    <ExtendedData xmlns:mwm="http://mapswith.me">
      <mwm:scale>18</mwm:scale>
    </ExtendedData>
  </Placemark>
  <Placemark>
    <name>Viewing Terrace for Tanneries</name>
    <TimeStamp><when>2014-04-02T22:06:49Z</when></TimeStamp>
    <styleUrl>#placemark-red</styleUrl>
    <Point><coordinates>-4.9711833,34.066126</coordinates></Point>
    <ExtendedData xmlns:mwm="http://mapswith.me">
      <mwm:scale>19</mwm:scale>
    </ExtendedData>
  </Placemark>
  <Placemark>
    <name>Uitzichtpunt Ziz Rivier En Kashbah</name>
    <TimeStamp><when>2014-04-03T09:10:44Z</when></TimeStamp>
    <styleUrl>#placemark-red</styleUrl>
    <Point><coordinates>-4.382916,32.082242</coordinates></Point>
    <ExtendedData xmlns:mwm="http://mapswith.me">
      <mwm:scale>17</mwm:scale>
    </ExtendedData>
  </Placemark>
  <Placemark>
    <name>Uitzichtpunt Stuwmeer</name>
    <TimeStamp><when>2014-04-03T09:22:00Z</when></TimeStamp>
    <styleUrl>#placemark-red</styleUrl>
    <Point><coordinates>-4.4046006,32.04617</coordinates></Point>
    <ExtendedData xmlns:mwm="http://mapswith.me">
      <mwm:scale>16</mwm:scale>
    </ExtendedData>
  </Placemark>
  <Placemark>
    <name>Uitzichtpunt Stuwmeer</name>
    <TimeStamp><when>2014-04-03T09:28:37Z</when></TimeStamp>
    <styleUrl>#placemark-red</styleUrl>
    <Point><coordinates>-4.4366431,32.027366</coordinates></Point>
    <ExtendedData xmlns:mwm="http://mapswith.me">
      <mwm:scale>15</mwm:scale>
    </ExtendedData>
  </Placemark>
  <Placemark>
    <name>Koffiestop</name>
    <TimeStamp><when>2014-04-03T10:21:53Z</when></TimeStamp>
    <styleUrl>#placemark-red</styleUrl>
    <Point><coordinates>-4.4469438,31.918556</coordinates></Point>
    <ExtendedData xmlns:mwm="http://mapswith.me">
      <mwm:scale>17</mwm:scale>
    </ExtendedData>
  </Placemark>
  <Placemark>
    <name>Uitzichtpunt  En Dadels</name>
    <TimeStamp><when>2014-04-03T11:18:06Z</when></TimeStamp>
    <styleUrl>#placemark-red</styleUrl>
    <Point><coordinates>-4.2390504,31.789895</coordinates></Point>
    <ExtendedData xmlns:mwm="http://mapswith.me">
      <mwm:scale>17</mwm:scale>
    </ExtendedData>
  </Placemark>
  <Placemark>
    <name>Rissani الريصاني</name>
    <TimeStamp><when>2014-04-03T11:40:09Z</when></TimeStamp>
    <styleUrl>#placemark-red</styleUrl>
    <Point><coordinates>-4.2671061,31.283109</coordinates></Point>
    <ExtendedData xmlns:mwm="http://mapswith.me">
      <mwm:scale>11</mwm:scale>
    </ExtendedData>
  </Placemark>
  <Placemark>
    <name>Winkel Voor Shawls</name>
    <TimeStamp><when>2014-04-03T14:25:00Z</when></TimeStamp>
    <styleUrl>#placemark-red</styleUrl>
    <Point><coordinates>-4.2599425,31.287056</coordinates></Point>
    <ExtendedData xmlns:mwm="http://mapswith.me">
      <mwm:scale>19</mwm:scale>
    </ExtendedData>
  </Placemark>
  <Placemark>
    <name>Desert Camp Ali</name>
    <TimeStamp><when>2014-04-03T17:54:41Z</when></TimeStamp>
    <styleUrl>#placemark-red</styleUrl>
    <Point><coordinates>-3.9765236,31.196455</coordinates></Point>
    <ExtendedData xmlns:mwm="http://mapswith.me">
      <mwm:scale>17</mwm:scale>
    </ExtendedData>
  </Placemark>
  <Placemark>
    <name>Khettara's Rode Kameel</name>
    <TimeStamp><when>2014-04-04T10:36:11Z</when></TimeStamp>
    <styleUrl>#placemark-red</styleUrl>
    <Point><coordinates>-4.4954119,31.530591</coordinates></Point>
    <ExtendedData xmlns:mwm="http://mapswith.me">
      <mwm:scale>19</mwm:scale>
    </ExtendedData>
  </Placemark>
  <Placemark>
    <name>Soleil Blue</name>
    <TimeStamp><when>2014-04-04T11:01:36Z</when></TimeStamp>
    <styleUrl>#placemark-red</styleUrl>
    <Point><coordinates>-5.9813704,31.378161</coordinates></Point>
    <ExtendedData xmlns:mwm="http://mapswith.me">
      <mwm:scale>16</mwm:scale>
    </ExtendedData>
  </Placemark>
  <Placemark>
    <name>Koffiestop Café Touroug</name>
    <TimeStamp><when>2014-04-04T11:36:15Z</when></TimeStamp>
    <styleUrl>#placemark-red</styleUrl>
    <Point><coordinates>-4.7394166,31.576459</coordinates></Point>
    <ExtendedData xmlns:mwm="http://mapswith.me">
      <mwm:scale>18</mwm:scale>
    </ExtendedData>
  </Placemark>
  <Placemark>
    <name>Restaurant Ilda</name>
    <TimeStamp><when>2014-04-04T12:18:48Z</when></TimeStamp>
    <styleUrl>#placemark-red</styleUrl>
    <Point><coordinates>-5.068717,31.500087</coordinates></Point>
    <ExtendedData xmlns:mwm="http://mapswith.me">
      <mwm:scale>19</mwm:scale>
    </ExtendedData>
  </Placemark>
  <Placemark>
    <name>Cafe Restaurant Itran</name>
    <TimeStamp><when>2014-04-04T12:21:36Z</when></TimeStamp>
    <styleUrl>#placemark-red</styleUrl>
    <Point><coordinates>-5.0972605,31.494789</coordinates></Point>
    <ExtendedData xmlns:mwm="http://mapswith.me">
      <mwm:scale>17</mwm:scale>
    </ExtendedData>
  </Placemark>
  <Placemark>
    <name>Oppikpunt Gids</name>
    <TimeStamp><when>2014-04-04T12:36:01Z</when></TimeStamp>
    <styleUrl>#placemark-red</styleUrl>
    <Point><coordinates>-5.5302081,31.525977</coordinates></Point>
    <ExtendedData xmlns:mwm="http://mapswith.me">
      <mwm:scale>17</mwm:scale>
    </ExtendedData>
  </Placemark>
  <Placemark>
    <name>Restaurant Anissa Todra</name>
    <TimeStamp><when>2014-04-04T14:32:10Z</when></TimeStamp>
    <styleUrl>#placemark-red</styleUrl>
    <Point><coordinates>-5.5818281,31.556356</coordinates></Point>
    <ExtendedData xmlns:mwm="http://mapswith.me">
      <mwm:scale>19</mwm:scale>
    </ExtendedData>
  </Placemark>
  <Placemark>
    <name>Restaurant Al Manadir</name>
    <TimeStamp><when>2014-04-05T13:18:54Z</when></TimeStamp>
    <styleUrl>#placemark-red</styleUrl>
    <Point><coordinates>-6.1401248,31.228265</coordinates></Point>
    <ExtendedData xmlns:mwm="http://mapswith.me">
      <mwm:scale>19</mwm:scale>
    </ExtendedData>
  </Placemark>
  <Placemark>
    <name>Wandeling Dades</name>
    <TimeStamp><when>2014-04-05T13:53:36Z</when></TimeStamp>
    <styleUrl>#placemark-red</styleUrl>
    <Point><coordinates>-6.0112576,31.425838</coordinates></Point>
    <ExtendedData xmlns:mwm="http://mapswith.me">
      <mwm:scale>15</mwm:scale>
    </ExtendedData>
  </Placemark>
  <Placemark>
    <name>Restaurant La Kasbah</name>
    <TimeStamp><when>2014-04-05T14:38:03Z</when></TimeStamp>
    <styleUrl>#placemark-red</styleUrl>
    <Point><coordinates>-6.8998847,30.92089</coordinates></Point>
    <ExtendedData xmlns:mwm="http://mapswith.me">
      <mwm:scale>17</mwm:scale>
    </ExtendedData>
  </Placemark>
  <Placemark>
    <name>Pinnen Credite Agricole du Maroc</name>
    <TimeStamp><when>2014-04-05T14:55:41Z</when></TimeStamp>
    <styleUrl>#placemark-red</styleUrl>
    <Point><coordinates>-6.9169998,30.920419</coordinates></Point>
    <ExtendedData xmlns:mwm="http://mapswith.me">
      <mwm:scale>19</mwm:scale>
    </ExtendedData>
  </Placemark>
  <Placemark>
    <name>Atlas Studio</name>
    <TimeStamp><when>2014-04-05T14:57:58Z</when></TimeStamp>
    <styleUrl>#placemark-red</styleUrl>
    <Point><coordinates>-6.9669185,30.941397</coordinates></Point>
    <ExtendedData xmlns:mwm="http://mapswith.me">
      <mwm:scale>15</mwm:scale>
    </ExtendedData>
  </Placemark>
  <Placemark>
    <name>Studios</name>
    <TimeStamp><when>2014-04-05T14:58:15Z</when></TimeStamp>
    <styleUrl>#placemark-red</styleUrl>
    <Point><coordinates>-6.986311,30.941734</coordinates></Point>
    <ExtendedData xmlns:mwm="http://mapswith.me">
      <mwm:scale>15</mwm:scale>
    </ExtendedData>
  </Placemark>
  <Placemark>
    <name>Ait-Ben-Haddou</name>
    <TimeStamp><when>2014-04-05T14:58:44Z</when></TimeStamp>
    <styleUrl>#placemark-red</styleUrl>
    <Point><coordinates>-7.1296268,31.046787</coordinates></Point>
    <ExtendedData xmlns:mwm="http://mapswith.me">
      <mwm:scale>12</mwm:scale>
    </ExtendedData>
  </Placemark>
  <Placemark>
    <name>Hotel Rose de Sable</name>
    <TimeStamp><when>2014-04-05T16:33:38Z</when></TimeStamp>
    <styleUrl>#placemark-red</styleUrl>
    <Point><coordinates>-7.1342645,31.046015</coordinates></Point>
    <ExtendedData xmlns:mwm="http://mapswith.me">
      <mwm:scale>17</mwm:scale>
    </ExtendedData>
  </Placemark>
  <Placemark>
    <name>Instappunt Bus Wandeling Dades</name>
    <TimeStamp><when>2014-04-05T21:10:45Z</when></TimeStamp>
    <styleUrl>#placemark-red</styleUrl>
    <Point><coordinates>-5.9703197,31.449327</coordinates></Point>
    <ExtendedData xmlns:mwm="http://mapswith.me">
      <mwm:scale>18</mwm:scale>
    </ExtendedData>
  </Placemark>
  <Placemark>
    <name>Startpunt Wandeling Dades</name>
    <TimeStamp><when>2014-04-05T21:11:16Z</when></TimeStamp>
    <styleUrl>#placemark-red</styleUrl>
    <Point><coordinates>-5.9906411,31.439388</coordinates></Point>
    <ExtendedData xmlns:mwm="http://mapswith.me">
      <mwm:scale>18</mwm:scale>
    </ExtendedData>
  </Placemark>
  <Placemark>
    <name>Hotel Moroccan House</name>
    <TimeStamp><when>2014-04-05T21:15:02Z</when></TimeStamp>
    <styleUrl>#placemark-red</styleUrl>
    <Point><coordinates>-8.0103569,31.636985</coordinates></Point>
    <ExtendedData xmlns:mwm="http://mapswith.me">
      <mwm:scale>17</mwm:scale>
    </ExtendedData>
  </Placemark>
  <Placemark>
    <name>Hotel Kasbah Asmaa</name>
    <TimeStamp><when>2014-04-05T21:21:21Z</when></TimeStamp>
    <styleUrl>#placemark-red</styleUrl>
    <Point><coordinates>-4.7132998,32.681562</coordinates></Point>
    <ExtendedData xmlns:mwm="http://mapswith.me">
      <mwm:scale>17</mwm:scale>
    </ExtendedData>
  </Placemark>
  <Placemark>
    <name>Uitzichtpunt Sneeuwtoppen</name>
    <TimeStamp><when>2014-04-06T08:40:33Z</when></TimeStamp>
    <styleUrl>#placemark-red</styleUrl>
    <Point><coordinates>-7.2545099,31.067345</coordinates></Point>
    <ExtendedData xmlns:mwm="http://mapswith.me">
      <mwm:scale>15</mwm:scale>
    </ExtendedData>
  </Placemark>
  <Placemark>
    <name>Viewpoint Sneeuwtoppen</name>
    <TimeStamp><when>2014-04-06T09:00:23Z</when></TimeStamp>
    <styleUrl>#placemark-red</styleUrl>
    <Point><coordinates>-7.4431381,31.150598</coordinates></Point>
    <ExtendedData xmlns:mwm="http://mapswith.me">
      <mwm:scale>15</mwm:scale>
    </ExtendedData>
  </Placemark>
  <Placemark>
    <name>Pass</name>
    <TimeStamp><when>2014-04-06T10:07:55Z</when></TimeStamp>
    <styleUrl>#placemark-red</styleUrl>
    <Point><coordinates>-7.3808866,31.28603</coordinates></Point>
    <ExtendedData xmlns:mwm="http://mapswith.me">
      <mwm:scale>19</mwm:scale>
    </ExtendedData>
  </Placemark>
  <Placemark>
    <name>Viewpoint</name>
    <TimeStamp><when>2014-04-06T10:26:00Z</when></TimeStamp>
    <styleUrl>#placemark-red</styleUrl>
    <Point><coordinates>-7.3756886,31.319158</coordinates></Point>
    <ExtendedData xmlns:mwm="http://mapswith.me">
      <mwm:scale>19</mwm:scale>
    </ExtendedData>
  </Placemark>
  <Placemark>
    <name>Lunch Restaurant</name>
    <TimeStamp><when>2014-04-06T12:43:45Z</when></TimeStamp>
    <styleUrl>#placemark-red</styleUrl>
    <Point><coordinates>-7.3998165,31.372337</coordinates></Point>
    <ExtendedData xmlns:mwm="http://mapswith.me">
      <mwm:scale>19</mwm:scale>
    </ExtendedData>
  </Placemark>
  <Placemark>
    <name>Chez Ali</name>
    <TimeStamp><when>2014-04-07T19:24:38Z</when></TimeStamp>
    <styleUrl>#placemark-red</styleUrl>
    <Point><coordinates>-8.0204935,31.702028</coordinates></Point>
    <ExtendedData xmlns:mwm="http://mapswith.me">
      <mwm:scale>17</mwm:scale>
    </ExtendedData>
  </Placemark>
  <Placemark>
    <name>Geiten In Bomen</name>
    <TimeStamp><when>2014-04-08T09:46:19Z</when></TimeStamp>
    <styleUrl>#placemark-red</styleUrl>
    <Point><coordinates>-9.3712225,31.546883</coordinates></Point>
    <ExtendedData xmlns:mwm="http://mapswith.me">
      <mwm:scale>17</mwm:scale>
    </ExtendedData>
  </Placemark>
  <Placemark>
    <name>Argan Cooperative Marjana</name>
    <TimeStamp><when>2014-04-10T04:34:04Z</when></TimeStamp>
    <styleUrl>#placemark-red</styleUrl>
    <Point><coordinates>-9.6389132,31.519249</coordinates></Point>
    <ExtendedData xmlns:mwm="http://mapswith.me">
      <mwm:scale>16</mwm:scale>
    </ExtendedData>
  </Placemark>
  <Placemark>
    <name>Palais Bahia</name>
    <TimeStamp><when>2014-04-10T09:15:21Z</when></TimeStamp>
    <styleUrl>#placemark-red</styleUrl>
    <Point><coordinates>-7.9817405,31.621407</coordinates></Point>
    <ExtendedData xmlns:mwm="http://mapswith.me">
      <mwm:scale>16</mwm:scale>
    </ExtendedData>
  </Placemark>
  <Placemark>
    <name>Mosquée de la Koutoubia</name>
    <TimeStamp><when>2014-04-10T09:16:04Z</when></TimeStamp>
    <styleUrl>#placemark-red</styleUrl>
    <Point><coordinates>-7.9935651,31.623743</coordinates></Point>
    <ExtendedData xmlns:mwm="http://mapswith.me">
      <mwm:scale>17</mwm:scale>
    </ExtendedData>
  </Placemark>
  <Placemark>
    <name>La Mamounia</name>
    <TimeStamp><when>2014-04-10T09:16:18Z</when></TimeStamp>
    <styleUrl>#placemark-red</styleUrl>
    <Point><coordinates>-7.9973159,31.621397</coordinates></Point>
    <ExtendedData xmlns:mwm="http://mapswith.me">
      <mwm:scale>17</mwm:scale>
    </ExtendedData>
  </Placemark>
  <Placemark>
    <name>Koranschool Medersa Ben Youssef</name>
    <TimeStamp><when>2014-04-10T09:17:01Z</when></TimeStamp>
    <styleUrl>#placemark-red</styleUrl>
    <Point><coordinates>-7.9863358,31.631964</coordinates></Point>
    <ExtendedData xmlns:mwm="http://mapswith.me">
      <mwm:scale>19</mwm:scale>
    </ExtendedData>
  </Placemark>
  <Placemark>
    <name>Musée de Marrakech</name>
    <TimeStamp><when>2014-04-10T09:17:08Z</when></TimeStamp>
    <styleUrl>#placemark-red</styleUrl>
    <Point><coordinates>-7.98595,31.631515</coordinates></Point>
    <ExtendedData xmlns:mwm="http://mapswith.me">
      <mwm:scale>19</mwm:scale>
    </ExtendedData>
  </Placemark>
  <Placemark>
    <name>Mausoleum Mohammed V</name>
    <TimeStamp><when>2014-04-12T21:56:55Z</when></TimeStamp>
    <styleUrl>#placemark-red</styleUrl>
    <Point><coordinates>-6.8215456,34.022796</coordinates></Point>
    <ExtendedData xmlns:mwm="http://mapswith.me">
      <mwm:scale>17</mwm:scale>
    </ExtendedData>
  </Placemark>
  <Placemark>
    <name>Palais Royal de Casablanca</name>
    <TimeStamp><when>2014-05-18T10:39:56Z</when></TimeStamp>
    <styleUrl>#placemark-red</styleUrl>
    <Point><coordinates>-7.6046648,33.579791</coordinates></Point>
    <ExtendedData xmlns:mwm="http://mapswith.me">
      <mwm:scale>17</mwm:scale>
    </ExtendedData>
  </Placemark>
  <Placemark>
    <name>Royal Palace Rabat</name>
    <TimeStamp><when>2014-05-18T10:41:16Z</when></TimeStamp>
    <styleUrl>#placemark-red</styleUrl>
    <Point><coordinates>-6.8349915,34.005563</coordinates></Point>
    <ExtendedData xmlns:mwm="http://mapswith.me">
      <mwm:scale>14</mwm:scale>
    </ExtendedData>
  </Placemark>
  <Placemark>
    <name>Uitzichtpunt Meer</name>
    <TimeStamp><when>2014-05-19T17:32:46Z</when></TimeStamp>
    <styleUrl>#placemark-red</styleUrl>
    <Point><coordinates>-5.3225141,34.048348</coordinates></Point>
    <ExtendedData xmlns:mwm="http://mapswith.me">
      <mwm:scale>17</mwm:scale>
    </ExtendedData>
  </Placemark>
  <Placemark>
    <name>Gare Supratours Busstation Marrakech</name>
    <TimeStamp><when>2014-05-21T17:28:46Z</when></TimeStamp>
    <styleUrl>#placemark-red</styleUrl>
    <Point><coordinates>-8.0189772,31.629791</coordinates></Point>
    <ExtendedData xmlns:mwm="http://mapswith.me">
      <mwm:scale>18</mwm:scale>
    </ExtendedData>
  </Placemark>
  <Placemark>
    <name>Aoufous  Dorp  met marktje</name>
    <TimeStamp><when>2014-05-22T12:08:03Z</when></TimeStamp>
    <styleUrl>#placemark-red</styleUrl>
    <Point><coordinates>-4.1787677,31.687792</coordinates></Point>
    <ExtendedData xmlns:mwm="http://mapswith.me">
      <mwm:scale>15</mwm:scale>
    </ExtendedData>
  </Placemark>
  <Placemark>
    <name>Fossielenfabriekje</name>
    <TimeStamp><when>2014-05-22T14:47:30Z</when></TimeStamp>
    <styleUrl>#placemark-red</styleUrl>
    <Point><coordinates>-4.2438846,31.417211</coordinates></Point>
    <ExtendedData xmlns:mwm="http://mapswith.me">
      <mwm:scale>15</mwm:scale>
    </ExtendedData>
  </Placemark>
  <Placemark>
    <name>Cafe Atlas</name>
    <TimeStamp><when>2014-05-27T09:35:22Z</when></TimeStamp>
    <styleUrl>#placemark-red</styleUrl>
    <Point><coordinates>-9.0122213,31.579429</coordinates></Point>
    <ExtendedData xmlns:mwm="http://mapswith.me">
      <mwm:scale>18</mwm:scale>
    </ExtendedData>
  </Placemark>
  <Placemark>
    <name>Jack's Appartment</name>
    <TimeStamp><when>2014-05-31T15:35:04Z</when></TimeStamp>
    <styleUrl>#placemark-red</styleUrl>
    <Point><coordinates>-9.7724266,31.512479</coordinates></Point>
    <ExtendedData xmlns:mwm="http://mapswith.me">
      <mwm:scale>19</mwm:scale>
    </ExtendedData>
  </Placemark>
  <Placemark>
    <name>Kanonnen Essaouira</name>
    <TimeStamp><when>2014-05-31T15:35:53Z</when></TimeStamp>
    <styleUrl>#placemark-red</styleUrl>
    <Point><coordinates>-9.7721739,31.515028</coordinates></Point>
    <ExtendedData xmlns:mwm="http://mapswith.me">
      <mwm:scale>19</mwm:scale>
    </ExtendedData>
  </Placemark>
  <Placemark>
    <name>Kruidenman Souk Jedid</name>
    <TimeStamp><when>2014-05-31T15:37:28Z</when></TimeStamp>
    <styleUrl>#placemark-red</styleUrl>
    <Point><coordinates>-9.7678471,31.514606</coordinates></Point>
    <ExtendedData xmlns:mwm="http://mapswith.me">
      <mwm:scale>19</mwm:scale>
    </ExtendedData>
  </Placemark>
  <Placemark>
    <name>Caravannerai</name>
    <TimeStamp><when>2014-05-31T15:38:08Z</when></TimeStamp>
    <styleUrl>#placemark-red</styleUrl>
    <Point><coordinates>-9.7678776,31.514215</coordinates></Point>
    <ExtendedData xmlns:mwm="http://mapswith.me">
      <mwm:scale>19</mwm:scale>
    </ExtendedData>
  </Placemark>
  <Placemark>
    <name>Vismarkt / Restaurant</name>
    <TimeStamp><when>2014-05-31T15:38:37Z</when></TimeStamp>
    <styleUrl>#placemark-red</styleUrl>
    <Point><coordinates>-9.7682333,31.514232</coordinates></Point>
    <ExtendedData xmlns:mwm="http://mapswith.me">
      <mwm:scale>19</mwm:scale>
    </ExtendedData>
  </Placemark>
  <Placemark>
    <name>Visstalletjes</name>
    <TimeStamp><when>2014-05-31T15:39:27Z</when></TimeStamp>
    <styleUrl>#placemark-red</styleUrl>
    <Point><coordinates>-9.7725735,31.510693</coordinates></Point>
    <ExtendedData xmlns:mwm="http://mapswith.me">
      <mwm:scale>17</mwm:scale>
    </ExtendedData>
  </Placemark>
  <Placemark>
    <name>Jimi Hendrix Cafe</name>
    <TimeStamp><when>2014-05-31T20:25:49Z</when></TimeStamp>
    <styleUrl>#placemark-red</styleUrl>
    <Point><coordinates>-9.7658844,31.480622</coordinates></Point>
    <ExtendedData xmlns:mwm="http://mapswith.me">
      <mwm:scale>19</mwm:scale>
    </ExtendedData>
  </Placemark>
  <Placemark>
    <name>Hamam Essaouira</name>
    <TimeStamp><when>2014-06-05T18:02:42Z</when></TimeStamp>
    <styleUrl>#placemark-red</styleUrl>
    <Point><coordinates>-9.7663031,31.514918</coordinates></Point>
    <ExtendedData xmlns:mwm="http://mapswith.me">
      <mwm:scale>19</mwm:scale>
    </ExtendedData>
  </Placemark>
  <Placemark>
    <name>Restaurant Berbere</name>
    <TimeStamp><when>2014-06-05T18:05:48Z</when></TimeStamp>
    <styleUrl>#placemark-red</styleUrl>
    <Point><coordinates>-9.7709379,31.513705</coordinates></Point>
    <ExtendedData xmlns:mwm="http://mapswith.me">
      <mwm:scale>19</mwm:scale>
    </ExtendedData>
  </Placemark>
  <Placemark>
    <name>Kitesurf Strand</name>
    <TimeStamp><when>2014-06-05T18:06:41Z</when></TimeStamp>
    <styleUrl>#placemark-red</styleUrl>
    <Point><coordinates>-9.7643652,31.498341</coordinates></Point>
    <ExtendedData xmlns:mwm="http://mapswith.me">
      <mwm:scale>15</mwm:scale>
    </ExtendedData>
  </Placemark>
  <Placemark>
    <name>petit fort portuguess</name>
    <TimeStamp><when>2014-06-06T22:04:00Z</when></TimeStamp>
    <styleUrl>#placemark-red</styleUrl>
    <Point><coordinates>-9.7756205,31.489047</coordinates></Point>
    <ExtendedData xmlns:mwm="http://mapswith.me">
      <mwm:scale>17</mwm:scale>
    </ExtendedData>
  </Placemark>
  <Placemark>
    <name>Cafe Berbere</name>
    <description>Zelf Tajine laten maken van eigen meegebrachte spullen.

Cuisine Rachid
Rachid 06 67190926</description>
    <TimeStamp><when>2014-06-10T19:02:01Z</when></TimeStamp>
    <styleUrl>#placemark-red</styleUrl>
    <Point><coordinates>-9.7685585,31.514267</coordinates></Point>
    <ExtendedData xmlns:mwm="http://mapswith.me">
      <mwm:scale>19</mwm:scale>
    </ExtendedData>
  </Placemark>
  <Placemark>
    <name>Kantoor Jac's Appartments</name>
    <TimeStamp><when>2014-06-10T19:02:50Z</when></TimeStamp>
    <styleUrl>#placemark-red</styleUrl>
    <Point><coordinates>-9.771719,31.512433</coordinates></Point>
    <ExtendedData xmlns:mwm="http://mapswith.me">
      <mwm:scale>18</mwm:scale>
    </ExtendedData>
  </Placemark>
  <Placemark>
    <name>Essaouira Supratours</name>
    <TimeStamp><when>2014-06-12T08:19:30Z</when></TimeStamp>
    <styleUrl>#placemark-red</styleUrl>
    <Point><coordinates>-9.7671232,31.510862</coordinates></Point>
    <ExtendedData xmlns:mwm="http://mapswith.me">
      <mwm:scale>17</mwm:scale>
    </ExtendedData>
  </Placemark>
  <Placemark>
    <name>Ceuta</name>
    <TimeStamp><when>2014-06-12T08:21:18Z</when></TimeStamp>
    <styleUrl>#placemark-red</styleUrl>
    <Point><coordinates>-5.3041439,35.888376</coordinates></Point>
    <ExtendedData xmlns:mwm="http://mapswith.me">
      <mwm:scale>8</mwm:scale>
    </ExtendedData>
  </Placemark>
  <Placemark>
    <name>Chefchaouen شفشاون</name>
    <TimeStamp><when>2014-06-12T08:21:32Z</when></TimeStamp>
    <styleUrl>#placemark-red</styleUrl>
    <Point><coordinates>-5.2646189,35.169165</coordinates></Point>
    <ExtendedData xmlns:mwm="http://mapswith.me">
      <mwm:scale>8</mwm:scale>
    </ExtendedData>
  </Placemark>
  <Placemark>
    <name>Hotel Oudaya Marrakech</name>
    <TimeStamp><when>2014-06-15T22:00:19Z</when></TimeStamp>
    <styleUrl>#placemark-red</styleUrl>
    <Point><coordinates>-8.0161152,31.636394</coordinates></Point>
    <ExtendedData xmlns:mwm="http://mapswith.me">
      <mwm:scale>18</mwm:scale>
    </ExtendedData>
  </Placemark>
</Document>
</kml>
