<?xml version="1.0" encoding="UTF-8"?>
<kml xmlns="http://earth.google.com/kml/2.2">
<Document>
  <Style id="placemark-blue">
    <IconStyle>
      <Icon>
        <href>http://mapswith.me/placemarks/placemark-blue.png</href>
      </Icon>
    </IconStyle>
  </Style>
  <Style id="placemark-brown">
    <IconStyle>
      <Icon>
        <href>http://mapswith.me/placemarks/placemark-brown.png</href>
      </Icon>
    </IconStyle>
  </Style>
  <Style id="placemark-green">
    <IconStyle>
      <Icon>
        <href>http://mapswith.me/placemarks/placemark-green.png</href>
      </Icon>
    </IconStyle>
  </Style>
  <Style id="placemark-orange">
    <IconStyle>
      <Icon>
        <href>http://mapswith.me/placemarks/placemark-orange.png</href>
      </Icon>
    </IconStyle>
  </Style>
  <Style id="placemark-pink">
    <IconStyle>
      <Icon>
        <href>http://mapswith.me/placemarks/placemark-pink.png</href>
      </Icon>
    </IconStyle>
  </Style>
  <Style id="placemark-purple">
    <IconStyle>
      <Icon>
        <href>http://mapswith.me/placemarks/placemark-purple.png</href>
      </Icon>
    </IconStyle>
  </Style>
  <Style id="placemark-red">
    <IconStyle>
      <Icon>
        <href>http://mapswith.me/placemarks/placemark-red.png</href>
      </Icon>
    </IconStyle>
  </Style>
  <Style id="placemark-yellow">
    <IconStyle>
      <Icon>
        <href>http://mapswith.me/placemarks/placemark-yellow.png</href>
      </Icon>
    </IconStyle>
  </Style>
  <name>Nicaragua</name>
  <visibility>1</visibility>
  <Placemark>
    <name>Koffiestop</name>
    <styleUrl>#placemark-red</styleUrl>
    <Point><coordinates>-85.61409,11.21886</coordinates></Point>
  </Placemark>
  <Placemark>
    <name>Rivas</name>
    <TimeStamp><when>2016-01-22T15:33:45Z</when></TimeStamp>
    <styleUrl>#placemark-red</styleUrl>
    <Point><coordinates>-85.82874,11.438939</coordinates></Point>
    <ExtendedData xmlns:mwm="http://mapswith.me">
      <mwm:scale>13</mwm:scale>
    </ExtendedData>
  </Placemark>
  <Placemark>
    <name>Restaurant aan Lago Cocibolca</name>
    <styleUrl>#placemark-red</styleUrl>
    <Point><coordinates>-85.937654,11.918998</coordinates></Point>
  </Placemark>
  <Placemark>
    <name>Laguna De Apoyo</name>
    <TimeStamp><when>2016-01-24T22:33:52Z</when></TimeStamp>
    <styleUrl>#placemark-red</styleUrl>
    <Point><coordinates>-86.032229,11.923896</coordinates></Point>
    <ExtendedData xmlns:mwm="http://mapswith.me">
      <mwm:scale>14</mwm:scale>
    </ExtendedData>
  </Placemark>
  <Placemark>
    <name>Laguna de Masaya</name>
    <TimeStamp><when>2016-01-24T22:34:02Z</when></TimeStamp>
    <styleUrl>#placemark-red</styleUrl>
    <Point><coordinates>-86.117278,11.972252</coordinates></Point>
    <ExtendedData xmlns:mwm="http://mapswith.me">
      <mwm:scale>12</mwm:scale>
    </ExtendedData>
  </Placemark>
  <Placemark>
    <name>Volcan Masaya Crater</name>
    <TimeStamp><when>2016-01-24T22:34:59Z</when></TimeStamp>
    <styleUrl>#placemark-red</styleUrl>
    <Point><coordinates>-86.166514,11.986551</coordinates></Point>
    <ExtendedData xmlns:mwm="http://mapswith.me">
      <mwm:scale>18</mwm:scale>
    </ExtendedData>
  </Placemark>
  <Placemark>
    <name>Mirador de Catarina</name>
    <TimeStamp><when>2016-01-25T17:04:56Z</when></TimeStamp>
    <styleUrl>#placemark-red</styleUrl>
    <Point><coordinates>-86.069029,11.913181</coordinates></Point>
    <ExtendedData xmlns:mwm="http://mapswith.me">
      <mwm:scale>17</mwm:scale>
    </ExtendedData>
  </Placemark>
  <Placemark>
    <name>Calle La Calzada</name>
    <styleUrl>#placemark-red</styleUrl>
    <Point><coordinates>-85.950051,11.930075</coordinates></Point>
  </Placemark>
  <Placemark>
    <name><![CDATA[Choco Museo & Café]]></name>
    <TimeStamp><when>2016-01-25T17:11:47Z</when></TimeStamp>
    <styleUrl>#placemark-red</styleUrl>
    <Point><coordinates>-85.955421,11.931909</coordinates></Point>
    <ExtendedData xmlns:mwm="http://mapswith.me">
      <mwm:scale>19</mwm:scale>
    </ExtendedData>
  </Placemark>
  <Placemark>
    <name>Ferrocaril</name>
    <styleUrl>#placemark-red</styleUrl>
    <Point><coordinates>-85.955155,11.930781</coordinates></Point>
  </Placemark>
  <Placemark>
    <name>Sigarenfabriek Doña Elba</name>
    <styleUrl>#placemark-red</styleUrl>
    <Point><coordinates>-85.960627,11.927846</coordinates></Point>
  </Placemark>
  <Placemark>
    <name>Sigarenfabriek</name>
    <styleUrl>#placemark-red</styleUrl>
    <Point><coordinates>-85.96208,11.927366</coordinates></Point>
  </Placemark>
  <Placemark>
    <name>La Union</name>
    <TimeStamp><when>2016-01-25T20:26:07Z</when></TimeStamp>
    <styleUrl>#placemark-red</styleUrl>
    <Point><coordinates>-85.958803,11.936252</coordinates></Point>
    <ExtendedData xmlns:mwm="http://mapswith.me">
      <mwm:scale>17</mwm:scale>
    </ExtendedData>
  </Placemark>
  <Placemark>
    <name>La Colonia</name>
    <TimeStamp><when>2016-01-25T20:26:11Z</when></TimeStamp>
    <styleUrl>#placemark-red</styleUrl>
    <Point><coordinates>-85.959555,11.936262</coordinates></Point>
    <ExtendedData xmlns:mwm="http://mapswith.me">
      <mwm:scale>17</mwm:scale>
    </ExtendedData>
  </Placemark>
  <Placemark>
    <name>San Jacinto</name>
    <TimeStamp><when>2016-01-25T23:30:58Z</when></TimeStamp>
    <styleUrl>#placemark-red</styleUrl>
    <Point><coordinates>-86.777218,12.580765</coordinates></Point>
    <ExtendedData xmlns:mwm="http://mapswith.me">
      <mwm:scale>14</mwm:scale>
    </ExtendedData>
  </Placemark>
  <Placemark>
    <name>Fortaleza de Coyotepe</name>
    <TimeStamp><when>2016-01-25T23:32:57Z</when></TimeStamp>
    <styleUrl>#placemark-red</styleUrl>
    <Point><coordinates>-86.098367,11.995959</coordinates></Point>
    <ExtendedData xmlns:mwm="http://mapswith.me">
      <mwm:scale>19</mwm:scale>
    </ExtendedData>
  </Placemark>
  <Placemark>
    <name>Puerto Momotombo</name>
    <TimeStamp><when>2016-01-25T23:35:14Z</when></TimeStamp>
    <styleUrl>#placemark-red</styleUrl>
    <Point><coordinates>-86.615481,12.404912</coordinates></Point>
    <ExtendedData xmlns:mwm="http://mapswith.me">
      <mwm:scale>17</mwm:scale>
    </ExtendedData>
  </Placemark>
  <Placemark>
    <name>Volcán Telica</name>
    <TimeStamp><when>2016-01-26T03:36:54Z</when></TimeStamp>
    <styleUrl>#placemark-red</styleUrl>
    <Point><coordinates>-86.841282,12.605487</coordinates></Point>
    <ExtendedData xmlns:mwm="http://mapswith.me">
      <mwm:scale>14</mwm:scale>
    </ExtendedData>
  </Placemark>
  <Placemark>
    <name>Hotel Austria</name>
    <TimeStamp><when>2016-01-26T03:40:10Z</when></TimeStamp>
    <styleUrl>#placemark-red</styleUrl>
    <Point><coordinates>-86.878801,12.433723</coordinates></Point>
    <ExtendedData xmlns:mwm="http://mapswith.me">
      <mwm:scale>19</mwm:scale>
    </ExtendedData>
  </Placemark>
  <Placemark>
    <name>Geplaatste Speld</name>
    <TimeStamp><when>2016-01-26T03:59:38Z</when></TimeStamp>
    <styleUrl>#placemark-red</styleUrl>
    <Point><coordinates>-81.697586,12.583027</coordinates></Point>
    <ExtendedData xmlns:mwm="http://mapswith.me">
      <mwm:scale>15</mwm:scale>
    </ExtendedData>
  </Placemark>
  <Placemark>
    <name>Sébaco</name>
    <TimeStamp><when>2016-01-26T14:26:57Z</when></TimeStamp>
    <styleUrl>#placemark-red</styleUrl>
    <Point><coordinates>-86.098458,12.854946</coordinates></Point>
    <ExtendedData xmlns:mwm="http://mapswith.me">
      <mwm:scale>14</mwm:scale>
    </ExtendedData>
  </Placemark>
  <Placemark>
    <name>Las Penitas</name>
    <TimeStamp><when>2016-01-27T23:57:38Z</when></TimeStamp>
    <styleUrl>#placemark-red</styleUrl>
    <Point><coordinates>-87.020293,12.361352</coordinates></Point>
    <ExtendedData xmlns:mwm="http://mapswith.me">
      <mwm:scale>17</mwm:scale>
    </ExtendedData>
  </Placemark>
  <Placemark>
    <name>Restaurante Taquezal</name>
    <TimeStamp><when>2016-01-28T04:17:06Z</when></TimeStamp>
    <styleUrl>#placemark-red</styleUrl>
    <Point><coordinates>-86.879808,12.434291</coordinates></Point>
    <ExtendedData xmlns:mwm="http://mapswith.me">
      <mwm:scale>19</mwm:scale>
    </ExtendedData>
  </Placemark>
  <Placemark>
    <name>El Sesteo</name>
    <TimeStamp><when>2016-01-28T04:17:24Z</when></TimeStamp>
    <styleUrl>#placemark-red</styleUrl>
    <Point><coordinates>-86.878697,12.435349</coordinates></Point>
    <ExtendedData xmlns:mwm="http://mapswith.me">
      <mwm:scale>19</mwm:scale>
    </ExtendedData>
  </Placemark>
  <Placemark>
    <name>Mercado Central</name>
    <TimeStamp><when>2016-01-28T04:18:22Z</when></TimeStamp>
    <styleUrl>#placemark-red</styleUrl>
    <Point><coordinates>-86.876913,12.435095</coordinates></Point>
    <ExtendedData xmlns:mwm="http://mapswith.me">
      <mwm:scale>19</mwm:scale>
    </ExtendedData>
  </Placemark>
  <Placemark>
    <name>Via Via</name>
    <TimeStamp><when>2016-01-28T16:04:59Z</when></TimeStamp>
    <styleUrl>#placemark-red</styleUrl>
    <Point><coordinates>-86.875757,12.436581</coordinates></Point>
    <ExtendedData xmlns:mwm="http://mapswith.me">
      <mwm:scale>19</mwm:scale>
    </ExtendedData>
  </Placemark>
  <Placemark>
    <name>Museo Combatientes Históricos de La Revolución Popular Sandinista</name>
    <TimeStamp><when>2016-01-28T16:06:22Z</when></TimeStamp>
    <styleUrl>#placemark-red</styleUrl>
    <Point><coordinates>-86.879562,12.434655</coordinates></Point>
    <ExtendedData xmlns:mwm="http://mapswith.me">
      <mwm:scale>19</mwm:scale>
    </ExtendedData>
  </Placemark>
  <Placemark>
    <name>Poneloya</name>
    <TimeStamp><when>2016-01-28T16:07:22Z</when></TimeStamp>
    <styleUrl>#placemark-red</styleUrl>
    <Point><coordinates>-87.043293,12.382911</coordinates></Point>
    <ExtendedData xmlns:mwm="http://mapswith.me">
      <mwm:scale>16</mwm:scale>
    </ExtendedData>
  </Placemark>
  <Placemark>
    <name>strand Poneloya</name>
    <styleUrl>#placemark-red</styleUrl>
    <Point><coordinates>-87.043445,12.377592</coordinates></Point>
  </Placemark>
  <Placemark>
    <name>Volcano Momotombo</name>
    <TimeStamp><when>2016-01-28T16:15:10Z</when></TimeStamp>
    <styleUrl>#placemark-red</styleUrl>
    <Point><coordinates>-86.538496,12.424702</coordinates></Point>
    <ExtendedData xmlns:mwm="http://mapswith.me">
      <mwm:scale>12</mwm:scale>
    </ExtendedData>
  </Placemark>
  <Placemark>
    <name>Aduana de Guasaule</name>
    <TimeStamp><when>2016-01-28T16:15:56Z</when></TimeStamp>
    <styleUrl>#placemark-red</styleUrl>
    <Point><coordinates>-86.95044,13.061956</coordinates></Point>
    <ExtendedData xmlns:mwm="http://mapswith.me">
      <mwm:scale>18</mwm:scale>
    </ExtendedData>
  </Placemark>
  <Placemark>
    <name>Monkey's Gourmet</name>
    <TimeStamp><when>2016-01-28T16:19:23Z</when></TimeStamp>
    <styleUrl>#placemark-red</styleUrl>
    <Point><coordinates>-85.918206,12.927619</coordinates></Point>
    <ExtendedData xmlns:mwm="http://mapswith.me">
      <mwm:scale>18</mwm:scale>
    </ExtendedData>
  </Placemark>
  <Placemark>
    <name>Comedor Oasis</name>
    <TimeStamp><when>2016-01-28T16:19:34Z</when></TimeStamp>
    <styleUrl>#placemark-red</styleUrl>
    <Point><coordinates>-85.918329,12.922142</coordinates></Point>
    <ExtendedData xmlns:mwm="http://mapswith.me">
      <mwm:scale>19</mwm:scale>
    </ExtendedData>
  </Placemark>
  <Placemark>
    <name>Super Estrella</name>
    <TimeStamp><when>2016-01-28T16:19:46Z</when></TimeStamp>
    <styleUrl>#placemark-red</styleUrl>
    <Point><coordinates>-85.920182,12.921917</coordinates></Point>
    <ExtendedData xmlns:mwm="http://mapswith.me">
      <mwm:scale>19</mwm:scale>
    </ExtendedData>
  </Placemark>
  <Placemark>
    <name>Cementerio Municipal de Matagalpa</name>
    <TimeStamp><when>2016-01-28T16:20:47Z</when></TimeStamp>
    <styleUrl>#placemark-red</styleUrl>
    <Point><coordinates>-85.927532,12.913509</coordinates></Point>
    <ExtendedData xmlns:mwm="http://mapswith.me">
      <mwm:scale>17</mwm:scale>
    </ExtendedData>
  </Placemark>
  <Placemark>
    <name>Playa Roca Hotel Restaurant Bar</name>
    <TimeStamp><when>2016-01-28T18:15:03Z</when></TimeStamp>
    <styleUrl>#placemark-red</styleUrl>
    <Point><coordinates>-87.023021,12.360341</coordinates></Point>
    <ExtendedData xmlns:mwm="http://mapswith.me">
      <mwm:scale>19</mwm:scale>
    </ExtendedData>
  </Placemark>
  <Placemark>
    <name>Simple Beach Lodge</name>
    <TimeStamp><when>2016-01-28T18:15:14Z</when></TimeStamp>
    <styleUrl>#placemark-red</styleUrl>
    <Point><coordinates>-87.023211,12.360121</coordinates></Point>
    <ExtendedData xmlns:mwm="http://mapswith.me">
      <mwm:scale>19</mwm:scale>
    </ExtendedData>
  </Placemark>
  <Placemark>
    <name>Bar Margarita</name>
    <TimeStamp><when>2016-01-29T00:42:12Z</when></TimeStamp>
    <styleUrl>#placemark-red</styleUrl>
    <Point><coordinates>-87.046903,12.383556</coordinates></Point>
    <ExtendedData xmlns:mwm="http://mapswith.me">
      <mwm:scale>19</mwm:scale>
    </ExtendedData>
  </Placemark>
  <Placemark>
    <name>Las Manos</name>
    <TimeStamp><when>2016-01-29T17:50:50Z</when></TimeStamp>
    <styleUrl>#placemark-red</styleUrl>
    <Point><coordinates>-86.560385,13.786923</coordinates></Point>
    <ExtendedData xmlns:mwm="http://mapswith.me">
      <mwm:scale>14</mwm:scale>
    </ExtendedData>
  </Placemark>
  <Placemark>
    <name>Nicuragua Immigration</name>
    <TimeStamp><when>2016-01-29T17:51:24Z</when></TimeStamp>
    <styleUrl>#placemark-red</styleUrl>
    <Point><coordinates>-86.723595,13.446234</coordinates></Point>
    <ExtendedData xmlns:mwm="http://mapswith.me">
      <mwm:scale>17</mwm:scale>
    </ExtendedData>
  </Placemark>
</Document>
</kml>
