<?xml version='1.0' encoding='UTF-8'?>
<kml xmlns='http://www.opengis.net/kml/2.2'>
	<Document>
		<name>МСК: лыжи и коньки</name>
		<description><![CDATA[]]></description>
		<Folder>
			<name>Untitled layer</name>
			<Placemark>
				<name>Воробьевы горы</name>
				<styleUrl>#icon-503-DB4436-nodesc</styleUrl>
				<ExtendedData>
				</ExtendedData>
				<Point>
					<coordinates>37.54257919999998,55.7108241,0.0</coordinates>
				</Point>
			</Placemark>
			<Placemark>
				<name>ГОРНОЛЫЖНАЯ БАЗА ЦСКА (ФИЛИ)</name>
				<styleUrl>#icon-503-DB4436-nodesc</styleUrl>
				<ExtendedData>
				</ExtendedData>
				<Point>
					<coordinates>37.4301195,55.7450621,0.0</coordinates>
				</Point>
			</Placemark>
			<Placemark>
				<name>Снеж.com</name>
				<styleUrl>#icon-503-DB4436-nodesc</styleUrl>
				<ExtendedData>
				</ExtendedData>
				<Point>
					<coordinates>37.36334099999999,55.81560000000001,0.0</coordinates>
				</Point>
			</Placemark>
			<Placemark>
				<name>Горнолыжный клуб Гая Северина</name>
				<styleUrl>#icon-503-DB4436-nodesc</styleUrl>
				<ExtendedData>
				</ExtendedData>
				<Point>
					<coordinates>38.02740599999993,55.55610000000001,0.0</coordinates>
				</Point>
			</Placemark>
			<Placemark>
				<name>Чулково</name>
				<styleUrl>#icon-503-DB4436-nodesc</styleUrl>
				<ExtendedData>
				</ExtendedData>
				<Point>
					<coordinates>38.055601199999955,55.5568422,0.0</coordinates>
				</Point>
			</Placemark>
			<Placemark>
				<name>Куркино</name>
				<styleUrl>#icon-503-DB4436-nodesc</styleUrl>
				<ExtendedData>
				</ExtendedData>
				<Point>
					<coordinates>37.3788357,55.8952882,0.0</coordinates>
				</Point>
			</Placemark>
			<Placemark>
				<name>Лисья гора</name>
				<styleUrl>#icon-503-DB4436-nodesc</styleUrl>
				<ExtendedData>
				</ExtendedData>
				<Point>
					<coordinates>37.95475970000007,55.7865462,0.0</coordinates>
				</Point>
			</Placemark>
			<Placemark>
				<name>Кант спортивный клуб</name>
				<styleUrl>#icon-503-DB4436-nodesc</styleUrl>
				<ExtendedData>
				</ExtendedData>
				<Point>
					<coordinates>37.61080709999999,55.67501499999999,0.0</coordinates>
				</Point>
			</Placemark>
			<Placemark>
				<name>Пирожная гора</name>
				<styleUrl>#icon-503-DB4436-nodesc</styleUrl>
				<ExtendedData>
				</ExtendedData>
				<Point>
					<coordinates>38.1167221,56.1345983,0.0</coordinates>
				</Point>
			</Placemark>
			<Placemark>
				<name>Сказка Круглино</name>
				<styleUrl>#icon-503-DB4436-nodesc</styleUrl>
				<ExtendedData>
				</ExtendedData>
				<Point>
					<coordinates>37.47629589999997,56.2679425,0.0</coordinates>
				</Point>
			</Placemark>
			<Placemark>
				<name>Сорочаны</name>
				<styleUrl>#icon-503-DB4436-nodesc</styleUrl>
				<ExtendedData>
				</ExtendedData>
				<Point>
					<coordinates>37.563155999999935,56.275696,0.0</coordinates>
				</Point>
			</Placemark>
			<Placemark>
				<name>Узкое</name>
				<styleUrl>#icon-503-DB4436-nodesc</styleUrl>
				<ExtendedData>
				</ExtendedData>
				<Point>
					<coordinates>37.54372230000001,55.6254967,0.0</coordinates>
				</Point>
			</Placemark>
			<Placemark>
				<name>Фристайл экстрим парк</name>
				<styleUrl>#icon-503-DB4436-nodesc</styleUrl>
				<ExtendedData>
				</ExtendedData>
				<Point>
					<coordinates>37.85283030000005,55.63411920000001,0.0</coordinates>
				</Point>
			</Placemark>
			<Placemark>
				<name>Волен спортивный парк</name>
				<styleUrl>#icon-503-DB4436-nodesc</styleUrl>
				<ExtendedData>
				</ExtendedData>
				<Point>
					<coordinates>37.48108430000002,56.2773593,0.0</coordinates>
				</Point>
			</Placemark>
			<Placemark>
				<name>Икша</name>
				<styleUrl>#icon-503-DB4436-nodesc</styleUrl>
				<ExtendedData>
				</ExtendedData>
				<Point>
					<coordinates>37.499744899999996,56.17363409999999,0.0</coordinates>
				</Point>
			</Placemark>
			<Placemark>
				<name>Лата-трэк</name>
				<styleUrl>#icon-503-DB4436-nodesc</styleUrl>
				<ExtendedData>
				</ExtendedData>
				<Point>
					<coordinates>37.427458,55.75046,0.0</coordinates>
				</Point>
			</Placemark>
			<Placemark>
				<name>Лоза</name>
				<styleUrl>#icon-503-DB4436-nodesc</styleUrl>
				<ExtendedData>
				</ExtendedData>
				<Point>
					<coordinates>38.21078220000004,56.259276,0.0</coordinates>
				</Point>
			</Placemark>
			<Placemark>
				<name>Ново-переделкино</name>
				<styleUrl>#icon-503-DB4436-nodesc</styleUrl>
				<ExtendedData>
				</ExtendedData>
				<Point>
					<coordinates>37.3646433,55.6374163,0.0</coordinates>
				</Point>
			</Placemark>
			<Placemark>
				<name>Склон Северное Бутово</name>
				<styleUrl>#icon-503-DB4436-nodesc</styleUrl>
				<ExtendedData>
				</ExtendedData>
				<Point>
					<coordinates>37.6014376,55.5783447,0.0</coordinates>
				</Point>
			</Placemark>
			<Placemark>
				<name>Степаново, Горнолыжный Комплекс</name>
				<styleUrl>#icon-503-DB4436-nodesc</styleUrl>
				<ExtendedData>
				</ExtendedData>
				<Point>
					<coordinates>37.429465400000026,56.2598317,0.0</coordinates>
				</Point>
			</Placemark>
			<Placemark>
				<name>Шуколово</name>
				<styleUrl>#icon-503-DB4436-nodesc</styleUrl>
				<ExtendedData>
				</ExtendedData>
				<Point>
					<coordinates>37.50577190000001,56.22950239999999,0.0</coordinates>
				</Point>
			</Placemark>
			<Placemark>
				<name>Парк Яхрома</name>
				<styleUrl>#icon-503-DB4436-nodesc</styleUrl>
				<ExtendedData>
				</ExtendedData>
				<Point>
					<coordinates>37.47629589999997,56.2679425,0.0</coordinates>
				</Point>
			</Placemark>
			<Placemark>
				<name>Каток на Красной Площади</name>
				<styleUrl>#icon-503-DB4436-nodesc</styleUrl>
				<ExtendedData>
				</ExtendedData>
				<Point>
					<coordinates>37.6199985,55.754337,0.0</coordinates>
				</Point>
			</Placemark>
			<Placemark>
				<name>Каток в Парке Горького</name>
				<styleUrl>#icon-503-DB4436-nodesc</styleUrl>
				<ExtendedData>
				</ExtendedData>
				<Point>
					<coordinates>37.599108,55.7294002,0.0</coordinates>
				</Point>
			</Placemark>
			<Placemark>
				<name>Каток на ВДНХ</name>
				<styleUrl>#icon-503-DB4436-nodesc</styleUrl>
				<ExtendedData>
				</ExtendedData>
				<Point>
					<coordinates>37.63646730000005,55.82690740000001,0.0</coordinates>
				</Point>
			</Placemark>
			<Placemark>
				<name>Каток Chips</name>
				<styleUrl>#icon-503-DB4436-nodesc</styleUrl>
				<ExtendedData>
				</ExtendedData>
				<Point>
					<coordinates>37.61836500000005,55.761889399999994,0.0</coordinates>
				</Point>
			</Placemark>
			<Placemark>
				<name>Каток на Чистых прудах</name>
				<styleUrl>#icon-503-DB4436-nodesc</styleUrl>
				<ExtendedData>
				</ExtendedData>
				<Point>
					<coordinates>37.642663099999936,55.7622398,0.0</coordinates>
				</Point>
			</Placemark>
			<Placemark>
				<name>Каток на Патриарших прудах</name>
				<styleUrl>#icon-503-DB4436-nodesc</styleUrl>
				<ExtendedData>
				</ExtendedData>
				<Point>
					<coordinates>37.59225379999998,55.7638715,0.0</coordinates>
				</Point>
			</Placemark>
			<Placemark>
				<name>Каток в Саду Эрмитаж</name>
				<styleUrl>#icon-503-DB4436-nodesc</styleUrl>
				<ExtendedData>
				</ExtendedData>
				<Point>
					<coordinates>37.60918650000008,55.77080780000001,0.0</coordinates>
				</Point>
			</Placemark>
			<Placemark>
				<name>Каток в Крылатском</name>
				<styleUrl>#icon-503-DB4436-nodesc</styleUrl>
				<ExtendedData>
				</ExtendedData>
				<Point>
					<coordinates>37.43515400000001,55.766754,0.0</coordinates>
				</Point>
			</Placemark>
			<Placemark>
				<name>Катки в Сокольниках</name>
				<styleUrl>#icon-503-DB4436-nodesc</styleUrl>
				<ExtendedData>
				</ExtendedData>
				<Point>
					<coordinates>37.66232130000003,55.7967401,0.0</coordinates>
				</Point>
			</Placemark>
			<Placemark>
				<name>Каток Серебряный Лед</name>
				<styleUrl>#icon-503-DB4436-nodesc</styleUrl>
				<ExtendedData>
				</ExtendedData>
				<Point>
					<coordinates>37.74812599999996,55.7820819,0.0</coordinates>
				</Point>
			</Placemark>
			<Placemark>
				<name>Каток в Саду Баумана</name>
				<styleUrl>#icon-503-DB4436-nodesc</styleUrl>
				<ExtendedData>
				</ExtendedData>
				<Point>
					<coordinates>37.66069570000002,55.7657531,0.0</coordinates>
				</Point>
			</Placemark>
			<Placemark>
				<name>Бесплатный каток Олимпийский</name>
				<styleUrl>#icon-503-DB4436-nodesc</styleUrl>
				<ExtendedData>
				</ExtendedData>
				<Point>
					<coordinates>37.626440499999944,55.78269830000001,0.0</coordinates>
				</Point>
			</Placemark>
			<Placemark>
				<name>Каток у Триумфальной арки</name>
				<styleUrl>#icon-503-DB4436-nodesc</styleUrl>
				<ExtendedData>
				</ExtendedData>
				<Point>
					<coordinates>37.51257199999998,55.738957,0.0</coordinates>
				</Point>
			</Placemark>
			<Placemark>
				<name>Каток Октябрь в Строгино</name>
				<styleUrl>#icon-503-DB4436-nodesc</styleUrl>
				<ExtendedData>
				</ExtendedData>
				<Point>
					<coordinates>37.448977900000045,55.79014799999999,0.0</coordinates>
				</Point>
			</Placemark>
			<Placemark>
				<name>Каток в Красной Пресне</name>
				<styleUrl>#icon-503-DB4436-nodesc</styleUrl>
				<ExtendedData>
				</ExtendedData>
				<Point>
					<coordinates>37.55283099999997,55.755911,0.0</coordinates>
				</Point>
			</Placemark>
		</Folder>
		<Style id='icon-503-DB4436-nodesc-normal'>
			<IconStyle>
				<color>ff3644DB</color>
				<scale>1.1</scale>
				<Icon>
					<href>http://www.gstatic.com/mapspro/images/stock/503-wht-blank_maps.png</href>
				</Icon>
				<hotSpot x='16' y='31' xunits='pixels' yunits='insetPixels'>
				</hotSpot>
			</IconStyle>
			<LabelStyle>
				<scale>0.0</scale>
			</LabelStyle>
			<BalloonStyle>
				<text><![CDATA[<h3>$[name]</h3>]]></text>
			</BalloonStyle>
		</Style>
		<Style id='icon-503-DB4436-nodesc-highlight'>
			<IconStyle>
				<color>ff3644DB</color>
				<scale>1.1</scale>
				<Icon>
					<href>http://www.gstatic.com/mapspro/images/stock/503-wht-blank_maps.png</href>
				</Icon>
				<hotSpot x='16' y='31' xunits='pixels' yunits='insetPixels'>
				</hotSpot>
			</IconStyle>
			<LabelStyle>
				<scale>1.1</scale>
			</LabelStyle>
			<BalloonStyle>
				<text><![CDATA[<h3>$[name]</h3>]]></text>
			</BalloonStyle>
		</Style>
		<StyleMap id='icon-503-DB4436-nodesc'>
			<Pair>
				<key>normal</key>
				<styleUrl>#icon-503-DB4436-nodesc-normal</styleUrl>
			</Pair>
			<Pair>
				<key>highlight</key>
				<styleUrl>#icon-503-DB4436-nodesc-highlight</styleUrl>
			</Pair>
		</StyleMap>
	</Document>
</kml>